id|ville|lat|lng
0|Atlantic City, NJ|39.3642834|-74.4229266
1|Chicago, IL|41.8781136|-87.6297982
2|St Petersburg, FL|27.7676008|-82.64029149999999
3|Dublin,|53.3498053|-6.2603097
4|Asbury Park, NJ|40.2203907|-74.0120817
5|Milwaukee, WI|43.0389025|-87.9064736
6|Washington, D.C.|38.9071923|-77.0368707
7|Las Vegas, NV|36.1699412|-115.1398296
8|Stavanger,|58.9699756|5.7331074
9|Seattle, WA|47.6062095|-122.3320708
10|Manchester|53.4807593|-2.2426305
11|Norfolk, VA|36.8507689|-76.28587259999999
12|Louisville, KY|38.2526647|-85.7584557
13|Malmö, Sweden|55.604981|13.003822
14|New York, NY|40.7127753|-74.0059728
15|Brighton,|40.598019|-111.583187
16|Davis, CA|38.5449065|-121.7405167
17|Port Chester, NY|41.0017643|-73.66568339999999
18|Newtown, NSW|-33.8978149|151.1785003
19|Boston, MA|42.3600825|-71.0588801
20|Philadelphia, PA|39.9525839|-75.1652215
21|Adelaide, SA|-34.9284989|138.6007456
22|Manchester, UK|53.4807593|-2.2426305
23|Swindon,|51.55577390000001|-1.7797176
24|Berkeley, CA|37.8715226|-122.273042
25|Concord, CA|37.9779776|-122.0310733
26|Aarhus, DK|56.162939|10.203921
27|Eugene, OR|44.0520691|-123.0867536
28|Portland, ME|43.6590993|-70.2568189
29|Montclair, NJ|40.8259007|-74.2090053
30|Nashville,TN|36.1626638|-86.7816016
31|Minneapolis, MN|44.977753|-93.2650108
32|Gettysburg, PA|39.8309293|-77.2310955
33|Sydney, NSW|-33.8688197|151.2092955
34|Stockholm, Sweden|59.32932349999999|18.0685808
35|East Troy, WI|42.7852922|-88.40509600000001
36|London, UK|51.5073509|-0.1277583
37||33.791638|-84.389488
38|Bristol,|51.454513|-2.58791
39|Decorah, IA|43.30330559999999|-91.7857092
40|Gloucester,|42.6159285|-70.6619888
41|Glasgow, United Kingdom|55.864237|-4.251806
42|Birmingham, AL|33.5185892|-86.8103567
43|Albany, NY|42.6525793|-73.7562317
44|Bodø, Norway|67.28291850000001|14.4150774
45|Oxford,|51.7548164|-1.2543668
46|Edinburgh, United Kingdom|55.953252|-3.188267
47|St. Paul, MN|44.9537029|-93.0899578
48|Kansas City, MO|39.0997265|-94.5785667
49|Los Angeles, CA|34.0522342|-118.2436849
50|Amsterdam, Netherlands|52.3666969|4.8945398
51|Portland, OR|45.5051064|-122.6750261
52|Cambridge, MA|42.3736158|-71.10973349999999
53|St Paul, MN |44.9537029|-93.0899578
54|Sacramento, CA|38.5815719|-121.4943996
55|Lincoln,|40.813616|-96.7025955
56|Austin, TX|30.267153|-97.7430608
57|Iowa City, IA|41.6611277|-91.5301683
58|Northridge, CA|34.2381251|-118.530123
59|Sioux Falls, SD|43.5473028|-96.728333
60|Davenport, ia|41.5236437|-90.5776367
61|Saint Paul, MN|44.9537029|-93.0899578
62|Charlottesville, VA|38.0293059|-78.47667810000002
63|CDMX|19.4326077|-99.133208
64|Munich,Germany|48.1351253|11.5819805
65|Paris,|48.856614|2.3522219
66|Nijmegen, Netherlands|51.8448837|5.842828099999999
67|Atlanta, GA|33.7489954|-84.3879824
68|Krakow, Poland|50.06465009999999|19.9449799
69|Bergen,|60.39126279999999|5.3220544
70|Dallas, TX|32.7766642|-96.79698789999999
71|Assago|45.4061985|9.1239694
72|Melbourne, VIC|-37.8136276|144.9630576
73|Paris|48.856614|2.3522219
74|Houston, TX|29.7604267|-95.3698028
75|Lexington KY|38.0405837|-84.5037164
76|Newark, NJ|40.735657|-74.1723667
77|Queens, NY|40.7282239|-73.7948516
78|Charlotte, NC|35.2270869|-80.8431267
79|Hershey, PA|40.2859239|-76.65024679999999
80|Oakland, CA|37.8043514|-122.2711639
81|Denver, CO|39.7392358|-104.990251
82|Lausanne|46.5196535|6.6322734
83|Gothenburg, Sweden|57.70887|11.97456
84|Utrecht, The Netherlands|52.09073739999999|5.1214201
85|Tampa, FL|27.950575|-82.4571776
86|Indianapolis, IN|39.768403|-86.158068
87|Colorado Springs, CO|38.8338816|-104.8213634
88|Lawrence, KS|38.9716689|-95.2352501
89|Richmond, VIC|-37.823|144.998
90|Warsaw,|52.2296756|21.0122287
91|Melbourne|-37.8136276|144.9630576
92|Winnipeg, MB|49.895136|-97.13837439999999
93|Vancouver, BC|49.2827291|-123.1207375
94|Stuttgart, Germany|48.7758459|9.1829321
95|Detroit, MI|42.331427|-83.0457538
96|South Burlington, VT|44.4669941|-73.1709604
97|Worcester, MA|42.2625932|-71.8022934
98|Toronto, ON|43.653226|-79.3831843
99|Cleveland, OH|41.49932|-81.6943605
100|Houston TX|29.7604267|-95.3698028
101|Nashville, TN|36.1626638|-86.7816016
102|Pittsburgh, PA|40.44062479999999|-79.9958864
103|Hollywood, CA|34.0928092|-118.3286614
104|Cleveland Heights, OH|41.5200518|-81.556235
105|Salem, OR|44.9428975|-123.0350963
106|Oslo, Norway|59.9138688|10.7522454
107|Manchester, NH|42.9956397|-71.4547891
108|Raleigh, NC|35.7795897|-78.6381787
109|Richmond, VA|37.5407246|-77.4360481
110|Dayton, OH|39.7589478|-84.1916069
111|SF Bay Area, CA|37.8271784|-122.2913078
112|Memphis, TN|35.1495343|-90.0489801
113|Phoenix, AZ|33.4483771|-112.0740373
114|Mobile, AL|30.6953657|-88.0398912
115|Reno, NV|39.5296329|-119.8138027
116|Albuquerque, NM|35.0843859|-106.650422
117|Tucson, AZ|32.2226066|-110.9747108
118|Salt Lake City, UT|40.7607793|-111.8910474
119|San Diego, CA|32.715738|-117.1610838
120|Amarillo, TX|35.2219971|-101.8312969
121|Chesapeake, VA|36.7682088|-76.2874927
122|Twin Cities, MN|44.9374831|-93.20099979999999
123|Peterborough, ON|44.309058|-78.31974699999999
124|Edmonton, AB|53.5461245|-113.4938229
125|Madison, WI|43.0730517|-89.4012302
126|Hamburg, Germany|53.5510846|9.9936819
127|Bridgeport, CT|41.1792258|-73.1894384
128|Montgomery, AL|32.3792233|-86.3077368
129|Toledo, OH|41.6528052|-83.5378674
130|Paris, France|48.856614|2.3522219
131|Springfield, MA|42.1014831|-72.589811
132|Dublin, Ireland|53.3498053|-6.2603097
133|Brownsville, TX|25.9017472|-97.4974838
134|Osh Kosh, Wisconsin|44.0247062|-88.5426136
135|Melbourne, FL|28.0836269|-80.60810889999999
136|Tallahassee, FL|30.4382559|-84.28073289999999
137|Neuhausen ob Eck, Germany|47.9713967|8.9300109
138|Roskilde, DK|55.64191|12.087845
139|Chattanooga, TN|35.0456297|-85.3096801
140|Shepton Mallet,|51.1909|-2.547886
141|Manchester, TN|35.4817431|-86.0885993
142|San Francisco, CA|37.7749295|-122.4194155
143|New York (NYC), NY|40.7127753|-74.0059728
144|Indio, CA|33.7205771|-116.2155619
145|Pilton,|51.16572530000001|-2.589688
146|Pilton, Somerset, UK|51.16572530000001|-2.589688
147|Pilton, England|51.16572530000001|-2.589688
148|Liverpool,|40.3917075|-90.0009491
149|Brussels,|50.8503396|4.3517103
150|Cardiff,|51.48158100000001|-3.17909
151|Offenbach, Germany|50.09563620000001|8.776084299999999
152|Edinburgh, UK|55.953252|-3.188267
153|Kyiv, Ukraine|50.4501|30.5234
154|Milano, Italy|45.4642035|9.189982
155|Aberdeen,|57.149717|-2.094278
156|Munich, Germany|48.1351253|11.5819805
157|Cardiff, UK|51.48158100000001|-3.17909
158|Ciudad de mexico|19.4326077|-99.133208
159|Melbourne, VIC, Australia|-37.8136276|144.9630576
160|Melbourne, Australia |-37.8136276|144.9630576
161|Rome,|41.9027835|12.4963655
162| Ciudad de México |19.4326077|-99.133208
163|Mexico City, Mexico|19.4326077|-99.133208
164|Amsterdam,|52.3666969|4.8945398
165|Milan, Italy|45.4642035|9.189982
166|Birmingham,|33.5185892|-86.8103567
167|Rochester, MI|42.680588|-83.1338214
168|Mexico City,|19.4326077|-99.133208
169|Shreveport, LA|32.5251516|-93.7501789
170|Omaha, NE|41.2565369|-95.9345034
171|Mannheim, Germany|49.4874592|8.466039499999999
172|Lund, Sweden|55.7046601|13.1910073
173|Tulsa, OK|36.1539816|-95.99277500000001
174|Ottawa, ON|45.4215296|-75.69719309999999
175|Jacksonville, FL|30.3321838|-81.65565099999999
176|Fresno, CA|36.7377981|-119.7871247
177|Oklahoma City, OK|35.4675602|-97.5164276
178|Dortmund, Germany|51.5135872|7.465298100000001
179|Wellington, New Zealand|-41.2864603|174.776236
180|Saint John's, NL|47.5615096|-52.7125768
181|Horsens, DK|55.8581302|9.8475881
182|Montreal, QC|45.5016889|-73.567256
183|Coventry, UK|52.406822|-1.519693
184|Bristow, VA|38.723303|-77.5367043
185|Nottingham, UK|52.95478319999999|-1.1581086
186|Sheffield, UK|53.38112899999999|-1.470085
187|Liverpool, UK|53.4083714|-2.9915726
188|Roma, Italy|41.9027835|12.4963655
189|Glasgow,|55.864237|-4.251806
190|Brighton, UK|50.82253000000001|-0.137163
191|Milano|45.4642035|9.189982
192|Finsbury Park, London, UK|51.56457839999999|-0.1047257
193|Roncade, Treviso, IT|45.6289905|12.3745787
194|Leicester, U.K.|52.6368778|-1.1397592
195|Newcastle Upon Tyne,|54.978252|-1.61778
196|Ferrara, Italy|44.8381237|11.619787
197|Brighton, United Kingdom|50.82253000000001|-0.137163
198|Ciudad de México, México|19.4326077|-99.133208
199|Newcastle Upon Tyne, UK|54.978252|-1.61778
200|Calgary, AB|51.04473309999999|-114.0718831
201|Spokane, WA|47.6587802|-117.4260465
202|Saskatoon, SK|52.1332144|-106.6700458
203|Halifax, NS|44.64876350000001|-63.5752387
204|Morrison, CO|39.6535988|-105.1910996
205|St. Louis, MO|38.6270025|-90.19940419999999
206|Fort Lauderdale, FL|26.1224386|-80.13731740000001
207|Mansfield, MA|42.03345650000001|-71.2190578
208|Inglewood, CA|33.9616801|-118.3531311
209|Kingston, UK|51.41233|-0.300689
210|Amsterdam|52.3666969|4.8945398
211|Edinburgh,|55.953252|-3.188267
212|Brisbane Australia |-27.4697707|153.0251235
213|Antwerpen, Belgium|51.2194475|4.4024643
214|Birmingham, UK|52.48624299999999|-1.890401
215|Leeds, UK|53.8007554|-1.5490774
216|Amsterdam, The Netherlands|52.3666969|4.8945398
217|Antwerp,|51.2194475|4.4024643
218|Tetbury,|51.639295|-2.15818
219|Wiesbaden, Germany|50.0782184|8.239760799999999
220|St. Austell,|50.3403779|-4.7834252
221|Newport,|41.4901024|-71.3128285
222|Bath|51.3810641|-2.3590167
223|Belfast,|54.59728500000001|-5.93012
224|Treviso, Italy|45.6668893|12.2430437
225|Nantes, FR|47.218371|-1.553621
226|Plymouth|41.9584457|-70.6672621
227|Copenhagen, Denmark|55.6760968|12.5683372
228|Providence, RI|41.8239891|-71.4128343
229| London, UK|51.5073509|-0.1277583
230|Vicenza, IT|45.5454787|11.5354214
231|Wembley, London|51.550501|-0.3048409
232|Milan, IT|45.4642035|9.189982
233|Florence, Italy|43.7695604|11.2558136
234|Columbia, MD|39.2037144|-76.86104619999999
235|Guadalajara, Jalisco, Mexico|20.6596988|-103.3496092
236|Toulouse, France|43.604652|1.444209
237|Köln, Germany|50.937531|6.9602786
238|Hindmarsh, SA|-34.906|138.57
239|Wantagh, NY|40.6837121|-73.5101258
240|Greensboro, NC|36.0726354|-79.7919754
241|Virginia Beach, VA|36.8529263|-75.97798499999999
242|Beckley, WV|37.7781702|-81.1881557
243|Wilmore, KY|37.8620226|-84.6616105
244|Silver Spring, MD|38.99066570000001|-77.026088
245|Charleston, WV|38.3498195|-81.6326234
246|Springfield, VA|38.7892801|-77.18720359999999
247|New Orleans, LA|29.95106579999999|-90.0715323
248|Biloxi, MS|30.3960318|-88.88530779999999
249|Mt. Union, PA|40.3845217|-77.8822199
250|Columbus, OH|39.9611755|-82.99879419999999
251|Ballarat, VIC|-37.5621587|143.8502556
252|Baltimore, MD|39.2903848|-76.6121893
253|Orlando, FL|28.5383355|-81.3792365
254|Ramonville St Agne,|43.543794|1.4784139
255|Scottsdale, AZ |33.4941704|-111.9260519
256|Las Cruces, NM|32.3199396|-106.7636538
257|Nantes, France|47.218371|-1.553621
258|Barcelona, Spain|41.3850639|2.1734035
259|Barcelona,|41.3850639|2.1734035
260|Budapest,|47.497912|19.040235
261|Lille, France|50.62925|3.057256
262|Asheville, NC|35.5950581|-82.5514869
263|Brooklyn, NY|40.6781784|-73.9441579
264|Big Rapids, MI|43.6980782|-85.4836557
265|Minneapolis, MN	|44.977753|-93.2650108
266|Mountain View, CA|37.3860517|-122.0838511
267|Riviera Maya, Mexico|20.5536295|-87.1670412
268|Lowell, MA|42.6334247|-71.31617179999999
269|Stockholm|59.32932349999999|18.0685808
270|Prague, Czech Republic|50.0755381|14.4378005
271|Glasgow, UK|55.864237|-4.251806
272|Fort Worth, TX|32.7554883|-97.3307658
273|Warrnambool, VIC, Australia|-38.3686779|142.4982086
274|Orangevale, CA|38.6785145|-121.2257818
275|Stockton, CA|37.9577016|-121.2907796
276|Saint Kilda, VIC|-37.864|144.982
277|Titusville, FL|28.6122187|-80.8075537
278|Celle, Germany|52.6175963|10.0628514
279|Exeter, UK|50.718412|-3.533899
280|Greenville, SC|34.85261759999999|-82.3940104
281|Southwold,|52.32562799999999|1.680181
282|Burnaby, BC|49.2488091|-122.9805104
283|College Park, MD|38.9896967|-76.93776
284|Belleville, ON|44.1627589|-77.3832315
285|Sauget, IL|38.5964402|-90.18483309999999
286|Grand Rapids, MI|42.9633599|-85.6680863
287|Buffalo, NY|42.88644679999999|-78.8783689
288|Fortitude Valley, QLD|-27.4565|153.0345
289|Berlin, Germany|52.52000659999999|13.404954
290|Karlskoga, Sweden|59.32863399999999|14.536414
291|Jacksonville fl|30.3321838|-81.65565099999999
292|Budapest, Hungary|47.497912|19.040235
293|Castle Donington, UK|52.845016|-1.3373001
294|Leipzig, DE|51.3396955|12.3730747
295|Santiago, CL|-33.4488897|-70.6692655
296|Scheessel,|53.1697267|9.4870781
297|Carson, CA|33.8316745|-118.281693
298|Hampton, VA|37.0298687|-76.34522179999999
299|Mashantucket, CT|41.4615182|-71.97866259999999
300| peoria  illinois|40.6936488|-89.5889864
301|moline illinois|41.5067003|-90.51513419999999
302|Merrillville, IN|41.4828144|-87.33281389999999
303|Uncasville, CT|41.43169049999999|-72.1100945
304|Rosemont, IL|41.98675069999999|-87.8721602
305|Cincinnati, OH|39.1031182|-84.5120196
306|Hammond, IN|41.5833688|-87.5000412
307|Etobicoke, ON|43.6204946|-79.5131983
308|Utrecht, Netherlands|52.09073739999999|5.1214201
309|Los Angeles (LA), CA|34.0522342|-118.2436849
310|Lansing, OH|40.0756276|-80.79008549999999
311|Miami Beach, FL|25.790654|-80.1300455
312|L'Hospitalet de Llobregat, Barcelona|41.3661865|2.1164942
313|Chambéry, France|45.564601|5.917781
314|Αθήνα|37.9838096|23.7275388
315|Enschede, The Netherlands|52.2215372|6.8936619
316|Athens, OH|39.3292396|-82.1012554
317|Williamsburg, VA|37.2707022|-76.7074571
318|Lafayette, LA|30.2240897|-92.0198427
319|Madrid, Spain|40.4167754|-3.7037902
320|Glasgow, Scotland|55.864237|-4.251806
321|Montreux, Switzerland|46.4312213|6.9106799
322|Columbia, IL|38.44366369999999|-90.2012239
323|East Rutherford, NJ|40.833989|-74.0970865
324|Isle Of Wight,|50.69384789999999|-1.304734
325|Commerce City, CO|39.8083196|-104.9338675
326|Tyagarah, NSW|-28.6065992|153.5527761
327|Lincoln, NE|40.813616|-96.7025955
328|Brisbane, QLD|-27.4697707|153.0251235
329|Düsseldorf,|51.2277411|6.7734556
330|Anaheim, CA|33.8365932|-117.9143012
331|Perth, WA|-31.9505269|115.8604572
332|Thonex, Switzerland|46.19283739999999|6.202767
333|Norwich,|41.5242649|-72.07591049999999
334|Aberdeen, UK|57.149717|-2.094278
335|Strasbourg, FR|48.5734053|7.752111299999999
336|Boston / Cambridge, MA|42.3736158|-71.10973349999999
337|Hong Kong|22.3193039|114.1693611
338|Council Bluffs, IA|41.2619444|-95.8608333
339|Ithaca, NY|42.4439614|-76.5018807
340|Lolo Hot Springs, MT|46.729408|-114.5399019
341|Darrington, WA|48.2553867|-121.6015142
342|Santa Rosa, CA|38.440429|-122.7140548
343|Quincy, CA|39.9368363|-120.9471764
344|Rothbury, MI|43.5072317|-86.3475717
345|Rye, CO|37.9236194|-104.9302662
346|Bradley, CA|35.8632993|-120.8007321
347|Ozark, AR|35.4870295|-93.8276965
348|Malakasa, Greece|38.2388242|23.7964627
349|Tilburg, the Netherlands|51.58525280000001|5.056375
350|Melbourne vic|-37.8136276|144.9630576
351|Auckland, New Zealand|-36.8484597|174.7633315
352|Santa Ana, CA|33.7454725|-117.867653
353|Lake Buena Vista, FL|28.3695351|-81.5261474
354|West Melbourne, VIC|-37.8089044|144.9290625
355|Mesa, AZ|33.4151843|-111.8314724
356|Syracuse, NY|43.0481221|-76.14742439999999
357|Avila Beach, CA|35.1800113|-120.7319127
358|Les Lilas, FR|48.881935|2.419452
359|River Grove, IL|41.9258642|-87.83589429999999
360|Thessaloniki, GR|40.6400629|22.9444191
361|river grove illinois|41.9258642|-87.83589429999999
362|Somerset, WI|45.1244108|-92.6735365
363|Tacoma, WA|47.2528768|-122.4442906
364|Tampa, Florida|27.950575|-82.4571776
365|George, WA|47.0790224|-119.8558822
366|Fairburn, GA|33.5670562|-84.5810418
367|New York City USA|40.7127753|-74.0059728
368|Dallas - Fort Worth, TX|32.7554883|-97.3307658
369|São Paulo, Brazil|-23.5505199|-46.63330939999999
370|Rome, Italy|41.9027835|12.4963655
371|La Plata, Argentina |-34.9204948|-57.95356570000001
372|São Paulo,|-23.5505199|-46.63330939999999
373|Tokyo, Japan|35.6761919|139.6503106
374|Kiewit, BE|38.95736|-94.777683
375|Ciudad de México, MX|19.4326077|-99.133208
376|Brussel, BE|50.8503396|4.3517103
377|Porto Alegre, Brazil|-30.0346471|-51.2176584
378|Bilbao, Spain|43.2630126|-2.9349852
379|Bloomington, IL|40.4842027|-88.99368729999999
380|Zagreb, HR|45.8150108|15.9819189
381|Gravesend,|51.44188399999999|0.370759
382|Zwolle|52.5167747|6.083021899999999
383|Milton Keynes, UK|52.0406224|-0.7594171
384|Ham|36.0742989|-95.88466129999999
385|Bolton,|53.57686469999999|-2.4282192
386|Berlin,|52.52000659999999|13.404954
387|Leeds,|53.8007554|-1.5490774
388|Tilburg|51.560596|5.0919143
389|Ann Arbor, MI|42.2808256|-83.7430378
390|CALGARY, AB CANADA|51.04473309999999|-114.0718831
391|Tinley Park, IL|41.5731442|-87.7932939
392|Cuyahoga Falls, OH|41.1339449|-81.48455849999999
393|Firenze, Italy|43.7695604|11.2558136
394|Nîmes,|43.836699|4.360054
395|Codroipo, Italy|45.9574806|12.9916399
396|Camden, NJ |39.9259463|-75.1196199
397|Oberlin, OH|41.2939386|-82.21737859999999
398|Sea Bright, NJ|40.3614987|-73.9740262
399|Tilburg, Netherlands|51.58525280000001|5.056375
400|Birmingham, United Kingdom|52.48624299999999|-1.890401
401|Clermont-Ferrand,|45.77722199999999|3.087025
402|Westbury, NY|40.7556561|-73.5876273
403|Groningen, Netherlands|53.2193835|6.5665017
404|Glenside, PA|40.0999077|-75.1527928
405|Irving, TX|32.8140177|-96.9488945
406|Upper Darby, PA|39.9593175|-75.2878235
407|Fuji, Japan|35.346777|-94.341248
408|Visalia, CA|36.3302284|-119.2920585
409|Grand Prairie, TX|32.7459645|-96.99778459999999
410|Boise, ID|43.6150186|-116.2023137
411|Uniondale, NY|40.7003793|-73.5929056
412|Boulder, CO|40.0149856|-105.2705456
413|Seattle WA|47.6062095|-122.3320708
414|Sydney |-33.8688197|151.2092955
415|Antwerp, Belgium|51.2194475|4.4024643
416|Canberra, ACT|-35.2809368|149.1300092
417|Berlin, Berlin|52.52000659999999|13.404954
418|South Australia |-30.0002315|136.2091547
419|Poznan, Poland|52.406374|16.9251681
420|Blankenberge, Belgium|51.31237429999999|3.1327685
421|Reading, PA|40.3356483|-75.9268747
422|Gent, BE|51.0543422|3.7174243
423|Modena, Italy|44.647128|10.9252269
424|Koblenz, DE|50.3569429|7.5889959
425|Lugano, Switzerland|46.0036778|8.951051999999999
426|Bologna, Italy|44.494887|11.3426162
427|Ghent, Belgium|51.0543422|3.7174243
428|Castelbuono,|37.9329881|14.088775
429|Anderlecht, BE|50.8365808|4.308187
430|Acapulco, México|16.8531086|-99.8236533
431|Turin,|45.0703393|7.686864
432|Katowice, Poland|50.26489189999999|19.0237815
433|Gräfenhainichen, Germany|51.728978|12.4535112
434|Rees, Germany|51.7670727|6.4015065
435|Reykjavík, IS|64.146582|-21.9426354
436|Roskilde, Denmark|55.64191|12.087845
437|Valencia, Spain|39.4699075|-0.3762881
438|Biddinghuizen,|52.45523559999999|5.692692999999999
439|Biddinghuizen, The Netherlands|52.45523559999999|5.692692999999999
440|Hasselt,|50.93069|5.332479999999999
441|Hasselt, Belgium|50.93069|5.332479999999999
442|Stockholm,|59.32932349999999|18.0685808
443|Frankfurt,|50.1109221|8.6821267
444|Buenos Aires, AR|-34.6036844|-58.3815591
445| Athens, Greece|37.9838096|23.7275388
446|Rio de Janeiro, RJ|-22.9068467|-43.1728965
447|Ghent,|51.0543422|3.7174243
448|Thessaloniki, Greece|40.6400629|22.9444191
449|Bristol, UK|51.454513|-2.58791
450|Masontown, WV|39.552305|-79.79773159999999
451|Morrison, Colorado|39.6535988|-105.1910996
452|Knoxville, TN|35.9606384|-83.9207392
453|Oberhausen,|51.4963341|6.863776499999999
454|Verona,|45.43838419999999|10.9916215
455|Vienna, Austria|48.2081743|16.3738189
456|Wrocław, Poland|51.1078852|17.0385376
457|Firenze|43.7695604|11.2558136
458|Arras, France|50.291002|2.777535
459|Glasgow Scotland |55.864237|-4.251806
460|Allston, MA|42.3539038|-71.1337112
461|Cascavel, Paraná|-24.9577771|-53.45951119999999
462|Brighton, MA|42.3463503|-71.1626756
463|Wallingford, CT|41.4570108|-72.8230736
464|Santa Barbara, CA|34.4208305|-119.6981901
465|Novi Sad, Serbia|45.2671352|19.8335496
466|Portsmouth, UK|50.8197675|-1.0879769
467|Fremantle, WA|-32.0518191|115.7551085
468|Sofia, Bulgaria|42.6977082|23.3218675
469|Moscow, Russia|55.755826|37.6172999
470|Bridlington, UK|54.08535|-0.198802
471|Mantova,|45.1564168|10.7913751
472|Solna,|59.36887909999999|18.0084334
473|Warsaw, Poland|52.2296756|21.0122287
474|Bournemouth, UK|50.719164|-1.880769
475|Dundee,|56.462018|-2.970721
476|Kentish Town, London, UK|51.5490952|-0.144084
477|Bournemouth,|50.719164|-1.880769
478|Bangkok, Thailand|13.7563309|100.5017651
479|Wolverhampton, UK|52.586973|-2.12882
480|Amsterdam, NL|52.3666969|4.8945398
481|Nyon|46.3832683|6.2347852
482|Guadalajara, Mexico|20.6596988|-103.3496092
483|Madrid, ES|40.4167754|-3.7037902
484|Clifton, NJ|40.8584328|-74.16375529999999
485|Zapopan,|20.6719563|-103.416501
486|Guelph, ON|43.5448048|-80.24816659999999
487|Hull, UK|53.76762360000001|-0.3274198
488|Sheffield|53.38112899999999|-1.470085
489|Burswood, WA|-31.9633074|115.8967553
490|Rahway, NJ|40.60815909999999|-74.2776468
491|Adelaide, SA, Australia|-34.9284989|138.6007456
492|Toms River, NJ|39.9537358|-74.1979458
493|Torino, Italy|45.0703393|7.686864
494|Camber Sands, UK|50.9327242|0.7960442999999999
495|Sydney, NSW, Australia|-33.8688197|151.2092955
496|Porto,|41.1579438|-8.629105299999999
497|Isle Of Wight, UK|50.69384789999999|-1.304734
498|Park City, UT|40.6460622|-111.4979729
499|Covington, KY|39.0836712|-84.5085536
500|Tempe, AZ|33.4255104|-111.9400054
501|Oxford, MS|34.3664951|-89.5192484
502|Northampton, MA|42.3250896|-72.64120129999999
503|Bee Cave, TX|30.306098|-97.9523768
504|Winston-Salem, NC|36.09985959999999|-80.244216
505|Blacksburg, VA|37.2295733|-80.4139393
506|Pilton, United Kingdom|51.16572530000001|-2.589688
507|Wrocław,|51.1078852|17.0385376
508|Belfast|54.59728500000001|-5.93012
509|Hamburg|53.5510846|9.9936819
510|Inverness,|57.477773|-4.224721
511|Cologne, DE|50.937531|6.9602786
512|Digbeth,|52.4754938|-1.8881111
513|Camden, London|51.5390261|-0.1425516
514|Hatfield,|40.27982739999999|-75.2993417
515|Folkestone,|51.081397|1.169456
516|St. Petersburg, Russia|59.9342802|30.3350986
517|Sheffield,|53.38112899999999|-1.470085
518|Plymouth, UK|50.3754565|-4.1426565
519|Hamburg,|53.5510846|9.9936819
520|Carhaix|48.27558399999999|-3.574188
521|Paris, FR|48.8526065|2.3338215
522|Charleville-Mezières, FR|49.76208500000001|4.726096
523|Chamouille, FR|49.474176|3.665461
524|Malestroit|47.810173|-2.383339
525|Six-Fours-Les-Plages, FR|43.093062|5.839225
526|Belfort, France|47.63967400000001|6.863849
527|Strasbourg, France|48.5734053|7.752111299999999
528|Saint-Cloud, FR|48.84764699999999|2.208115
529|Brest, France|48.390394|-4.486076
530|Dour, Belgium|50.4000126|3.7827918
531|Argelès-sur-mer|42.546214|3.022911
532|Colmar, France|48.0793589|7.358511999999999
533|Mendig|50.374444|7.280832999999999
534|Wetherby, UK|53.92705600000001|-1.384816
535|Werchter,|50.9712194|4.694200899999999
536|Roskilde,|55.64191|12.087845
537|Reading,|40.3356483|-75.9268747
538|Eindhoven|51.44164199999999|5.4697225
539|Brisbane, AUS|-27.4697707|153.0251235
540|Landerneau|48.450821|-4.248437
541|Bordeaux, FR|44.837789|-0.57918
542|Maryland Heights, MO|38.7131073|-90.42984009999999
543|Berlin, DE|52.52000659999999|13.404954
544|Lisbon,|38.7222524|-9.1393366
545|Milan,|45.4642035|9.189982
546|Metz,|49.1193089|6.175715599999999
547|Padova, Italy|45.4064349|11.8767611
548|Byblos, Lebanon|34.1230021|35.6519282
549|Conegliano, Italy|45.889197|12.3006368
550|Eindhoven,|51.44164199999999|5.4697225
551|Upper Swan, WA|-31.7731085|116.0277687
552|Ravenna, Italy|44.4183598|12.2035294
553|Porto, Portugal|41.1579438|-8.629105299999999
554|Frankfurt, Germany|50.1109221|8.6821267
555|Foxborough, MA|42.0653812|-71.2478251
556|Bratislava, Slovakia|48.1485965|17.1077478
557|Vienna, VA|38.9012225|-77.2652604
558|Neuchâtel, Switzerland|46.9899874|6.9292732
559|Rotterdam, Netherlands|51.9244201|4.4777326
560|Ohrid|41.1230977|20.8016481
561|Leicester|52.6368778|-1.1397592
562|Skopje|42.0050274|21.4407659
563|Houston |29.7604267|-95.3698028
564|Rennes|48.117266|-1.6777926
565|Bonn, Germany|50.73743|7.0982068
566|Geneva, Switzerland|46.2043907|6.1431577
567|Verona, Italy|45.43838419999999|10.9916215
568|Vancouver, BC - Canada|49.2827291|-123.1207375
569|Detroit |42.331427|-83.0457538
570|Remoulins|43.939518|4.564296
571|Seoul, KR|37.566535|126.9779692
572|Grenoble,|45.188529|5.724524
573|Strasbourg,|48.5734053|7.752111299999999
574|Belfort,|39.0002934|-77.4318392
575|Powys,|52.6464249|-3.3260904
576|Nyon,|46.3832683|6.2347852
577|Eastnor, UK|52.0292227|-2.3861354
578|Pomona, CA|34.055103|-117.7499909
579|Brixton, London|51.4612794|-0.1156148
580|Charlotte NC|35.2270869|-80.8431267
581|Utrecht, NL|52.09073739999999|5.1214201
582|Lincoln, Nebraska |40.813616|-96.7025955
583|Cholula, Puebla|19.0765772|-98.30211919999999
584|Shanghai, China|31.230416|121.473701
585|Norwich|41.5242649|-72.07591049999999
586|Little Rock, AR|34.7464809|-92.28959479999999
587|Missoula, MT|46.8721284|-113.9940314
588|Québec, QC, Canada|46.8138783|-71.2079809
589|Clearwater, FL|27.9658533|-82.8001026
590|Groningen, The Netherlands|53.2193835|6.5665017
591|Lisbon, Portugal|38.7222524|-9.1393366
592|Biddinghuizen, NL|52.45523559999999|5.692692999999999
593|Brno, Czech Republic|49.1950602|16.6068371
594|Nurburg, West Germany|50.3418803|6.9520304
595|Bradford, United Kingdom|53.795984|-1.759398
596|Plovdiv, Bulgaria|42.1354079|24.7452904
597|Bucharest, Romania|44.4267674|26.1025384
598|Crato, Portugal|39.28767440000001|-7.6456553
599|Coimbra, Portugal|40.2033145|-8.4102573
600|Imola, Italy|44.35999959999999|11.7124294
601|Ternat, BE|50.87009279999999|4.1783284
602|Zambujeira do Mar, Portugal|37.5577771|-8.7591311
603|Portalegre,|39.2967086|-7.4284755
604|Paredes de Coura, Portugal|41.9130455|-8.5614589
605|Vilar de Mouros, Portugal|41.8913636|-8.7958754
606|Nürnberg, DE|49.4521018|11.0766654
607|Nickelsdorf, AT|47.9415942|17.0707582
608|Vizovice, Czech Republic|49.2229732|17.8548213
609|Nürburg, Germany|50.3418803|6.9520304
610|Eindhoven, Netherlands|51.44164199999999|5.4697225
611|Biddinghuizen|52.45523559999999|5.692692999999999
612|Biddinghuizen, Netherlands|52.45523559999999|5.692692999999999
613|Riga, Latvia|56.9496487|24.1051865
614|Cologne,|50.937531|6.9602786
615|Nuremberg,|49.4521018|11.0766654
616|Wiesen, Austria|47.7377921|16.339096
617|Heerlen, Netherlands|50.88817419999999|5.9794988
618|Lviv,|49.839683|24.029717
619|Bern,|46.9479739|7.4474468
620|  urbana illinois|40.1105875|-88.2072697
621|National Harbor, MD|38.7818036|-77.014663
622|Μαλακάσα|38.2388242|23.7964627
623|München,Germany|48.1351253|11.5819805
624|Zürich|47.3768866|8.541694
625|Athens, Greece|37.9838096|23.7275388
626|Buenos Aires,|-34.6036844|-58.3815591
627|Lima, Peru|-12.0463731|-77.042754
628|Singapore|1.352083|103.819836
629|Auburn, WA|47.30732279999999|-122.2284532
630|Singapore,|1.352083|103.819836
631|Hong Kong, China|22.3193039|114.1693611
632|São Paulo, São Paulo|-23.5505199|-46.63330939999999
633|Rybnik, Poland|50.1021742|18.5462847
634|Istanbul,|41.0082376|28.9783589
635|Nîmes, France|43.836699|4.360054
636|Reykjavík, Iceland|64.146582|-21.9426354
637|Dublin, IE|53.3440033|-6.2664667
638|Dublin Ireland|53.3498053|-6.2603097
639|Torino|45.0703393|7.686864
640|Düsseldorf, Germany|51.2277411|6.7734556
641|Panama City, Panama|8.9823792|-79.51986959999999
642|Zürich, Switzerland|47.3768866|8.541694
643|Tijuana, Mexico|32.5149469|-117.0382471
644|Belgium|50.503887|4.469936
645|Utrecht,|52.09073739999999|5.1214201
646|Vienna,|48.2081743|16.3738189
647|San Diego|32.715738|-117.1610838
648|Tilburg,|51.560596|5.0919143
649|Cleveland, Ohio|41.49932|-81.6943605
650|Utrecht|52.09073739999999|5.1214201
651|Lodz,|51.7592485|19.4559833
652|Genk, Belgium|50.96613|5.5021
653|Moscow, Russian Federation|55.755826|37.6172999
654|Warszawa, PL|52.2296756|21.0122287
655|Hamburg, DE|53.5510846|9.9936819
656|Maastricht, Netherlands|50.8513682|5.6909725
657|Leicester, UK|52.6368778|-1.1397592
658|Austin texas|30.267153|-97.7430608
659|Wolverhampton,|52.586973|-2.12882
660|Trotwood, OH|39.7972788|-84.3113334
661|Glendale, AZ|33.5386523|-112.1859866
662|Laredo, TX|27.5035613|-99.5075519
663|Fargo, ND|46.8771863|-96.7898034
664|San Antonio, TX|29.4241219|-98.49362819999999
665|Des Moines, IA|41.5868353|-93.6249593
666|Bakersfield, CA|35.3732921|-119.0187125
667|Fayetteville, NC|35.0526641|-78.87835849999999
668|Broomfield, CO|39.9205411|-105.0866504
669|Osaka, Japan|34.6937249|135.5022535
670|Monterrey, Mexico|25.6866142|-100.3161126
671|Sayreville, NJ|40.45940210000001|-74.360846
672|Niigata, Japan|37.9161244|139.0363708
673|Galway, Ireland|53.270668|-9.0567905
674|Trencin,|48.884936|18.0335208
675|Penrith, UK|54.664097|-2.752708
676|Kinross,|56.206132|-3.4229
677|Carrboro, NC|35.9101438|-79.0752895
678|Schijndel, the netherlands|51.6196625|5.433497399999999
679|Athens, GA|33.9519347|-83.357567
680|Gothenburg,|57.70887|11.97456
681|Roslyn NY|40.7998227|-73.6509622
682|Kensington, London|51.5010095|-0.1932794
683|Cologne, Germany|50.937531|6.9602786
684|Huntsville, AL|34.7303688|-86.5861037
685|Trondheim, Norway|63.4305149|10.3950528
686|Ft. Lauderdale, FL|26.1224386|-80.13731740000001
687|Cheltenham,|40.0812601|-75.1370254
688|Poole, UK|50.71505|-1.987248
689|Brussels, Belgium|50.8503463|4.3517211
690|Hoboken, NJ|40.7439905|-74.0323626
691|Kingston Upon Thames, United Kingdom|51.41233|-0.300689
692|Lorient|47.7482524|-3.3702449
693|Paredes de Coura|41.9130455|-8.5614589
694|Angouleme, France|45.648377|0.1562369
695|St. Pölten, Lower Austria|48.20353|15.63817
696|Hradec Králové,|50.2103605|15.825211
697|Preston,|53.763201|-2.70309
698|hvar, Croatia|43.1729478|16.4411136
699|Plymouth,|41.9584457|-70.6672621
700|Istanbul, Turkey|41.0082376|28.9783589
701|Werchter, BE|50.9712194|4.694200899999999
702|Chemnitz, Germany|50.827845|12.9213697
703|Bradford|53.795984|-1.759398
704|Stockholm Sweden|59.32932349999999|18.0685808
705|Santa Cruz, CA|36.9741171|-122.0307963
706|Bristol, United Kingdom|51.454513|-2.58791
707|Lakeland, FL|28.0394654|-81.9498042
708|Ogden, UT|41.223|-111.9738304
709|Sydney, NSW. Australia |-33.8688197|151.2092955
710|Kansas City, KS|39.11553139999999|-94.62678729999999
711|Akron, OH|41.0814447|-81.51900529999999
712|Modena,|44.647128|10.9252269
713|Kalamazoo, MI|42.2917069|-85.5872286
714|Fitchburg, MA|42.5834228|-71.8022955
715|New Delhi|28.6139391|77.2090212
716|Fort Collins, CO|40.5852602|-105.084423
717|Tel Aviv, Israel |32.0852999|34.78176759999999
718|Yam Hamelach, Israel|31.5590287|35.4731895
719|Rishon LeZion, Israel|31.9730015|34.7925013
720|Brisbane, QLD, Australia|-27.4697707|153.0251235
721|Marseille|43.296482|5.36978
722|Crans-près-Céligny, Switzerland|46.3598471|6.206461900000001
723|Hyères, FR|43.120541|6.128639
724|Puget Sur Argens, FR|43.455329|6.68408
725|Herouville St Clair|49.20358|-0.333655
726|Biarritz, France|43.4831519|-1.558626
727|Pickwick, Tennessee|35.0639134|-88.24721919999999
728|Évreux, France|49.0270129|1.151361
729|Marmande,|44.500484|0.159869
730|Mariaville, NY|42.8286864|-74.1351279
731|Québec, QC|46.8138783|-71.2079809
732|Nîmes |43.836699|4.360054
733|Barberaz,|45.555421|5.939437
734|Cannes, FR|43.552847|7.017369
735|Carhaix, France|48.27558399999999|-3.574188
736|Neuchâtel|46.9899874|6.9292732
737|Lanester|47.76349399999999|-3.347354
738|Quimper|47.997542|-4.097899
739|Landgraaf, Netherlands|50.8927646|6.0224085
740|Montendre,|45.283726|-0.409691
741|Albi|43.9250853|2.1486413
742|La Courneuve, FR|48.9320252|2.3990819
743|Belfort, FR|47.63967400000001|6.863849
744|Sélestat, FR|48.259386|7.454241000000001
745|Landgraaf,|50.8927646|6.0224085
746|Landgraaf|50.8927646|6.0224085
747|Landgraaf, The Netherlands|50.8927646|6.0224085
748|Luxembourg, Luxembourg|49.61162100000001|6.1319346
749|The Used|39.0290251|-95.6834238
750|Honolulu, HI|21.3069444|-157.8583333
751|Helsinki, Finland|60.16985569999999|24.9383791
752|Vaasa, Finland|63.09508899999999|21.6164564
753|Kentish Town, London|51.5490952|-0.144084
754|Hollywood CA|34.0928092|-118.3286614
755|Fords, NJ|40.5360104|-74.3152408
756|Islington, London|51.538621|-0.1028346
757|Lombard, IL|41.8800296|-88.00784349999999
758|Wilmington, DE|39.744655|-75.5483909
759|Southampton, UK|50.90970040000001|-1.4043509
760|Hull,|53.76762360000001|-0.3274198
761|Hatfield, UK|51.763366|-0.22309
762|Oxford|51.7548164|-1.2543668
763|York|39.9625984|-76.727745
764|Carlton, VIC, Australia|-37.8001|144.9671
765|St Kilda, VIC, Australia|-37.864|144.982
766|Allentown, PA|40.6022939|-75.4714098
767|West Hollywood, CA|34.0900091|-118.3617443
768|Kerkrade, Netherlands|50.8659457|6.0705486
769|Sesto San Giovanni|45.5328245|9.2256875
770|Huntington, NY|40.8681539|-73.425676
771|Den Haag, The Netherlands|52.0704978|4.3006999
772|Zapopan, JAL, MX|20.6719563|-103.416501
773|Ardmore, PA|40.0067785|-75.2854622
774|Ferndale, MI|42.4605917|-83.1346478
775|Fayetteville, AR|36.082156|-94.17185420000001
776|Nampa, ID|43.5788175|-116.55978
777|San Jose, CA|37.3382082|-121.8863286
778|San Bernardino, CA|34.1083449|-117.2897652
779|University Park, PA|40.8147955|-77.86531260000001
780|Lakewood, OH|41.4819932|-81.7981908
781|Phoenix ax|33.4483771|-112.0740373
782|Bad Kissingen|50.2007337|10.080392
783|Bangalore,|12.9715987|77.5945627
784|Zürich, CH|47.3768866|8.541694
785|Ludwigsburg, Germany|48.8940624|9.195464
786|Bristol, TN|36.5951059|-82.18874439999999
787|Kiev, Ukraine|50.4501|30.5234
788|İstanbul|41.0082376|28.9783589
789|St.louis|38.6270025|-90.19940419999999
790|Maplewood, MN|44.9530215|-92.9952153
791|São Paulo, SP|-23.5505199|-46.63330939999999
792|Sunrise, FL|26.1669711|-80.25659499999999
793|Donetsk, Ukraine|48.015883|37.80285
794|Goiânia, GO|-16.6868982|-49.2648114
795|Göteborg|57.70887|11.97456
796|Denver Colorado |39.7392358|-104.990251
797|Bratislava,|48.1485965|17.1077478
798|Avenches, Switzerland|46.8806009|7.0427075
799|Sarnia, Ontario|42.974536|-82.4065901
800|Penthalaz, Switzerland|46.6097989|6.525440199999999
801|Orillia, ON|44.6082465|-79.4196783
802|Meerhout, Belgium|51.13218999999999|5.07708
803|Costa Mesa, CA|33.6638439|-117.9047429
804|Tucson AZ|32.2226066|-110.9747108
805|Sydney, Australia|-33.8688197|151.2092955
806|St Augustine, FL|29.9012437|-81.31243409999999
807|Stateline, NV|38.9624079|-119.9399029
808|Del Mar, CA|32.9594891|-117.2653146
809|Seville, Spain|37.3890924|-5.9844589
810|Puebla, México|19.0414398|-98.2062727
811|Gold Coast, QLD|-28.016667|153.4
812|Oeiras,|38.6919934|-9.3118418
813|St. Petersburg, FL|27.7676008|-82.64029149999999
814|Kingston Upon Thames, UK|51.41233|-0.300689
815|London U.K.|51.5073509|-0.1277583
816|Joliet, IL|41.525031|-88.0817251
817|Lancaster, PA|40.0378755|-76.3055144
818|Rhode Island|41.5800945|-71.4774291
819|Bristol|51.454513|-2.58791
820|Cheswick, PA|40.5417343|-79.7992155
821|Nottingham, United Kingdom|52.95478319999999|-1.1581086
822|Camarillo, CA|34.2163937|-119.0376023
823|New Haven, CT|41.308274|-72.9278835
824|New Farm, QLD|-27.468|153.048
825|Launceston, Tas, AUS|-41.43322149999999|147.1440875
826|Darling Harbour, NSW|-33.87488|151.2009
827|Ypsilanti, MI|42.2411499|-83.61299389999999
828|Seoul, Korea, Republic Of|37.566535|126.9779692
829|Bendigo, VIC|-36.7570157|144.2793906
830|Mandurah, WA|-32.5361038|115.7424077
831|Townsville, QLD|-19.2589635|146.8169483
832|Auckland,|-36.8484597|174.7633315
833|Kaunas|54.8985207|23.9035965
834|Rouen, France|49.44323199999999|1.099971
835|Englewood, CO|39.6477653|-104.9877597
836|Trondheim,|63.4305149|10.3950528
837|Crespellano, Bologna, Italy|44.5143919|11.1290632
838|Minsk, Belarus|53.9006011|27.558972
839|Donnington, United Kingdom|51.4158214|-1.3302562
840|Sheffield, United Kingdom|53.38112899999999|-1.470085
841|Eindhoven, The Netherlands|51.44164199999999|5.4697225
842|Morgantown, WV|39.629526|-79.95589679999999
843|Champaign, IL|40.1164204|-88.2433829
844|Royal Oak, MI|42.4894801|-83.1446485
845|Oslo, NO|59.9138688|10.7522454
846|Harrison Arkansas|36.2297936|-93.1076765
847|Allegan, MI|42.5291989|-85.8553031
848|Palmer, AK|61.599415|-149.1146334
849|Victorville, CA|34.5362184|-117.2927641
850|Lynchburg, VA|37.4137536|-79.14224639999999
851|Valdosta, GA|30.8327022|-83.2784851
852|Oberhausen, Germany|51.4963341|6.863776499999999
853|Lima, OH|40.742551|-84.1052256
854|Columbia, SC|34.0007104|-81.0348144
855|Loveland, CO|40.3977612|-105.0749801
856|Hot Springs, AR|34.5037004|-93.0551795
857|Darien Center, NY|42.9011708|-78.38863119999999
858|Darien Lake,NY|42.9278518|-78.3822125
859|Jaroměř, Czech Republic|50.3568041|15.924138
860|Dessel, Belgium|51.23985|5.11269
861|Dessel,|51.23985|5.11269
862|Gainesville, FL|29.6516344|-82.32482619999999
863|Lansing, MI|42.732535|-84.5555347
864|Ft Lauderdale, FL|26.1224386|-80.13731740000001
865|Geneseo, NY|42.795896|-77.816947
866|Roseville, CA|38.7521235|-121.2880059
867|St. Charles, MO|38.7881062|-90.4974359
868|North Myrtle Beach, SC|33.8160058|-78.680016
869|Ventura, CA|34.2804923|-119.2945199
870|El Paso, TX|31.7618778|-106.4850217
871|Springfield, MO|37.2089572|-93.29229889999999
872|Hampton Beach, NH|42.9113098|-70.81348179999999
873|arlington  heights illinois|42.0883603|-87.98062650000001
874|racine wisconsin|42.7261309|-87.78285230000002
875|Aurora, IL|41.7605849|-88.32007150000001
876|wheaton illinois|41.8661403|-88.1070127
877|Hinsdale illinois|41.8008642|-87.9370052
878|Long Beach CA|33.7700504|-118.1937395
879|macomb illinois|40.4592076|-90.67179709999999
880|Fort Wayne, IN|41.079273|-85.1393513
881|Flagstaff, AZ|35.1982836|-111.651302
882|Niagara Falls, NY|43.0962143|-79.0377388
883|Doylestown, PA|40.3101063|-75.1298939
884|Rockford, Illinois|42.2711311|-89.0939952
885|Coral Gables, FL|25.7491968|-80.2635411
886|Oxford, OH|39.5069974|-84.74523099999999
887|Lisbon|38.7222524|-9.1393366
888|Fairfax, VA|38.84622359999999|-77.30637329999999
889|Santa Monica, CA|34.0194543|-118.4911912
890|Irvine, CA|33.6845673|-117.8265049
891|Olivehurst, CA|39.0954484|-121.5521858
892|Münster, Germany|51.9606649|7.6261347
893|Toronto Canada|43.653226|-79.3831843
894|København, DK|55.6760968|12.5683372
895|Bern, Switzerland|46.9479739|7.4474468
896|Roma|19.4095846|-99.1575732
897|Nuremberg, Germany|49.4521018|11.0766654
898|Arlington, TX|32.735687|-97.10806559999999
899|Landover, MD|38.9340002|-76.8966397
900|Flushing, NY|40.7674987|-73.833079
901|Werchter, Belgium|50.9712194|4.694200899999999
902|Miami, FL|25.7616798|-80.1917902
903|Wheatland, CA|39.0098946|-121.4230133
904|Columbus Ohio|39.9611755|-82.99879419999999
905|Steinkjer|64.01501929999999|11.4952627
906| schaumburg illinois|42.0333607|-88.0834059
907|Newcastle, UK|54.978252|-1.61778
908|Lille,|50.62925|3.057256
909|Derby, UK|52.9225301|-1.4746186
910|cedar rapids iowa|41.9778795|-91.6656232
911|Bradford,|53.795984|-1.759398
912|Cardiff, Wales, UK|51.48158100000001|-3.17909
913|Magdeburg, Germany|52.1205333|11.6276237
914|Pontiac, MI|42.6389216|-83.29104679999999
915|Schweinfurt|50.0492047|10.2194227
916|Hoofddorp|52.3060853|4.6907041
917|Hoofddorp, Netherlands|52.3060853|4.6907041
918|Curitiba, PR|-25.4808762|-49.3044253
919|Cervia, Italy|44.26354920000001|12.3476822
920|Schweinfurt, Germany|50.0492047|10.2194227
921|Centurion, South Africa|-25.864029|28.0888578
922|Egna-Neumarkt, Italy|46.3115896|11.272514
923|Karlsruhe, Germany|49.0068901|8.4036527
924|Antwerpen|39.2099521|-76.9420507
925|Lyon, France|45.764043|4.835659
926|Saint Petersburg, Russia|59.9342802|30.3350986
927|Savigny-le-Temple, France|48.59585999999999|2.580987
928|Ham, Belgium|51.1038173|5.177736299999999
929|Kitchener, ON|43.4516395|-80.4925337
930|Sapporo, Japan|43.0617713|141.3544507
931|Nancy, France|48.692054|6.184417
932|Matsumoto, Japan|36.2380434|137.9719897
933|Maui, HI|20.7983626|-156.3319253
934|Weeze, Germany|51.6266679|6.1968442
935|Zephyrhills, FL|28.2336196|-82.18119469999999
936|Roswell, NM|33.3942655|-104.5230242
937|Banchory,|57.053856|-2.4909599
938|Dubai|25.2048493|55.2707828
939|Carlisle, United Kingdom|54.892473|-2.932931
940|Schaffhausen,|47.6958897|8.6380489
941|Portsmouth,|43.0717552|-70.7625532
942|Munich,|48.1351253|11.5819805
943|Böblingen, Germany|48.6813312|9.0088299
944|Belfast, UK|54.59728500000001|-5.93012
945|Hultsfred, Sweden|57.49484|15.8416513
946|Aarhus, Denmark|56.162939|10.203921
947|Bergen, Norway|60.39126279999999|5.3220544
948|Singapore, Singapore|1.352083|103.819836
949|Vilnius, Lithuania|54.6871555|25.2796514
950|Winterthur, Switzerland|47.4988196|8.723688899999999
951|Zwolle, Netherlands|52.5167747|6.083021899999999
952|Norrköping, Sweden|58.587745|16.192421
953|Tampere, Finland|61.4977524|23.7609535
954|South Florida |27.6648274|-81.5157535
955|Rossio - Lisboa|38.7138802|-9.139051
956|Helsinki, FIN|60.16985569999999|24.9383791
957|Sopron, Hungary|47.68166189999999|16.5844795
958|Sereď,|48.2850786|17.7338455
959|Anchorage, AK|61.2180556|-149.9002778
960|Herrin, IL|37.80310559999999|-89.02757439999999
961|Kingston Upon Thames,|51.41233|-0.300689
962|Soho, London, UK|51.5136143|-0.1365486
963|Reseda, CA|34.2011141|-118.5360517
964|west melbourne|28.0716832|-80.65338779999999
965| clinton iowa|41.8444735|-90.1887379
966|Terre Haute, IN|39.4667034|-87.41390919999999
967|Binghamton, NY|42.09868669999999|-75.91797380000001
968|Bryan, TX|30.6743643|-96.3699632
969|Largo, MD|38.8779723|-76.8317325
970|Fern Park, Fl|28.6486372|-81.35133359999999
971|Cicero, IL|41.8455877|-87.7539448
972| West Hollywood, CA|34.0900091|-118.3617443
973|Eden Valley, MN|45.324998|-94.54451449999999
974|Dover De|39.158168|-75.5243682
975|Charleston, SC|32.7764749|-79.93105120000001
976|St. Charles, IL|41.9141945|-88.3086867
977|Appleton, WI|44.2619309|-88.41538469999999
978|Jim Thorpe, PA|40.8759235|-75.7324127
979|Jersey City, NJ|40.7177545|-74.0431435
980|Englewood, NJ|40.8928771|-73.9726381
981|Walker, MN|47.10134619999999|-94.5872162
982|Porvoo, Finland|60.3931919|25.6652739
983|State College, PA|40.7933949|-77.8600012
984|Kiuruvesi, Finland|63.65380200000001|26.6210552
985|Bytów, Poland|54.1706219|17.4916089
986|Jersey, Channel Islands, UK|49.21377649999999|-2.1357665
987|Gdańsk, Poland|54.35202520000001|18.6466384
988|Kildare, Ireland|53.1589342|-6.9095683
989|Guildford, UK|51.23622|-0.570409
990|Southampton,|50.90970040000001|-1.4043509
991|Parkenfestivalen, NO|67.2846335|14.3838662
992|Zamárdi, Hungary |46.8840799|17.9580947
993|Arvika Sweden|59.6548534|12.592136
994|Tunari, Romania|44.546529|26.1375753
995|Kyiv (Kiev),|50.4501|30.5234
996|Wayville, SA|-34.9453327|138.5925435
997|Wellington,|-41.2864603|174.776236
998|Kraków, PL|50.06465009999999|19.9449799
999|Montreal, Quebec|45.5016889|-73.567256
1000|Seixal, Portugal|38.6410676|-9.0975
1001|Blackburn, England|53.748575|-2.487529
1002|Benicassim, Spain|40.055385|0.0641504
1003|Kiewit, Belgium|50.96239|5.35609
1004|Mexico City|19.4326077|-99.133208
1005|Arnhem, Netherlands |51.9851034|5.898729599999999
1006|Ipswich,|52.056736|1.14822
1007|Mannheim, DE|49.4874592|8.466039499999999
1008|Oslo,|59.9138688|10.7522454
1009|Sopot, PL|54.441581|18.5600956
1010|Sheffield, England|53.38112899999999|-1.470085
1011|Greenwich,|51.4933675|0.0098214
1012|Bremen, Germany|53.07929619999999|8.8016936
1013|Auburn, AL|32.6098566|-85.48078249999999
1014|Skellefteå, Sweden|64.750244|20.950917
1015|Broadmeadow, NSW|-32.9251756|151.7341816
1016|São Paulo - Brasil|-23.5505199|-46.63330939999999
1017|Stanhope, NJ|40.9028765|-74.7090517
1018|Halton, UK|53.3612697|-2.7334763
1019|Monterrey, NL, Mexico|25.6866142|-100.3161126
1020|São Paulo|-23.5505199|-46.63330939999999
1021|Malmö|55.604981|13.003822
1022|São Paulo, SP, Brazil|-23.5505199|-46.63330939999999
1023|Birmingham|33.5185892|-86.8103567
1024|Birmingham, England|52.48624299999999|-1.890401
1025|Krakow,|50.06465009999999|19.9449799
1026|hollywood|34.0928092|-118.3286614
1027|Ipswich, UK|52.056736|1.14822
1028|Rome|41.9027835|12.4963655
1029|Leamington Spa, UK|52.2851905|-1.5200789
1030|Margate, UK|51.38964600000001|1.3868339
1031|Folkestone, UK|51.081397|1.169456
1032|Lincoln, UK|53.230688|-0.5405789999999999
1033|Kings Lynn|52.7516798|0.4022963000000001
1034|Cambridge, UK|52.205337|0.121817
1035|Beacon, NY|41.5048158|-73.9695832
1036|Sesto San Giovanni, Italy|45.5328245|9.2256875
1037|Middlesbrough, UK|54.574227|-1.234956
1038|Zurich|47.3768866|8.541694
1039|Toulon, FR|43.124228|5.928
1040|Jakarta,|-6.2087634|106.845599
1041|Bethlehem, PA|40.6259316|-75.37045789999999
1042|Moline, IL|41.5067003|-90.51513419999999
1043|Quezon City, Philippines|14.6760413|121.0437003
1044|Norfolk, Va.|36.8507689|-76.28587259999999
1045|tinley park illinois|41.5731442|-87.7932939
1046|Florida |27.6648274|-81.5157535
1047|Red Bank, NJ|40.3470543|-74.0643065
1048|Bilbao, SP|43.2630126|-2.9349852
1049|Athens, GR|37.9838096|23.7275388
1050| Athens|37.9838096|23.7275388
1051|Milton Keynes, England|52.0406224|-0.7594171
1052|Monaco, Monaco|43.73841760000001|7.424615799999999
1053|Santiago de Compostela, Spain|42.8782132|-8.5448445
1054|Lokeren, BE|51.10234130000001|3.9940663
1055|Minehead, UK|51.20428|-3.481152
1056|Lokeren, Belgium|51.10234130000001|3.9940663
1057|Katowice, PL|50.26489189999999|19.0237815
1058|Tienen, Belgium|50.81057|4.93622
1059|Castle Donington, England|52.845016|-1.3373001
1060|Kuala Lumpur,|3.139003|101.686855
1061|Kuala Lumpur, Malaysia|3.139003|101.686855
1062|Nottingham,|52.95478319999999|-1.1581086
1063|Marfa, TX|30.3094622|-104.020623
1064|Prague, CZ|50.0755381|14.4378005
1065|Alpharetta, GA|34.0753762|-84.2940899
1066|Normal, IL|40.5142026|-88.9906312
1067|Thurles, Ireland|52.6801064|-7.8044421
1068|Staffordshire, UK |52.8792745|-2.0571868
1069|Reading, Berkshire, UK|51.4542645|-0.9781303
1070|Augsburg, Germany|48.3705449|10.89779
1071|Annandale, NSW|-33.8814|151.1707
1072|Richmond Victoria|-37.823|144.998
1073|Newcastle, NSW|-32.9282712|151.7816802
1074|Hartford, CT|41.7658043|-72.6733723
1075|Old Bridge, NJ|40.4128551|-74.307282
1076|Marysville, CA|39.1457253|-121.5913547
1077|Toluca, México|19.2826098|-99.6556653
1078|Orlando FL|28.5383355|-81.3792365
1079|Mumbai, India|19.0759837|72.8776559
1080|Finland|61.92410999999999|25.7481511
1081|Sweden|60.12816100000001|18.643501
1082|Glasgow, United Kingdom.|55.864237|-4.251806
1083|Stafford, UK|52.806693|-2.12066
1084|Edinburgh UK|55.953252|-3.188267
1085|St Petersburg|27.7676008|-82.64029149999999
1086|Loreley|34.699796|-83.71428999999999
1087|Whitley Bay, UK|55.046389|-1.4512989
1088|Rainbow Bay|-28.163547|153.5463102
1089|Medina, MN|45.0352411|-93.5824586
1090|Boone, NC|36.216795|-81.6745517
1091|Birmingham UK|52.48624299999999|-1.890401
1092|Lexington, KY|38.0405837|-84.5037164
1093|Lexton, VIC, Australia|-37.2792586|143.5156517
1094|Detroit Mi|42.331427|-83.0457538
1095|Montreal, Canada|45.5016889|-73.567256
1096|Hamilton, ON|43.2557206|-79.8711024
1097|Halifax, Nova Scotia|44.64876350000001|-63.5752387
1098|Munich, DE|48.1351253|11.5819805
1099|Brighton UK|50.82253000000001|-0.137163
1100|Lisboa, Portugal|38.7222524|-9.1393366
1101|colombia, MD|39.2037144|-76.86104619999999
1102|Rochester, NY|43.15657789999999|-77.6088465
1103|Piestany, Slovakia|48.5917973|17.827155
1104|Chelmsford,|42.5998139|-71.3672838
1105|Long Marston|52.134166|-1.778136
1106|Kinross, UK|56.206132|-3.4229
1107|Reading, UK|51.4542645|-0.9781303
1108|Katowice,|50.26489189999999|19.0237815
1109|Caesarea, Israel|32.519016|34.904544
1110|Padua, Italy|45.4064349|11.8767611
1111|Tallinn, Estonia|59.43696079999999|24.7535747
1112|Lacey, WA|47.0358969|-122.8232553
1113|Bountiful. UT|40.8893895|-111.880771
1114|Nottingham|52.95478319999999|-1.1581086
1115|Greenwood Village, CO|39.6172101|-104.9508141
1116|Guildford,|51.23622|-0.570409
1117|Indianapolis, Indiana|39.768403|-86.158068
1118|Anderson, IN|40.1053196|-85.6802541
1119|Norwich, UK|52.6308859|1.297355
1120|Hilvarenbeek, Netherlands|51.4856827|5.138406199999999
1121|Hilvarenbeek, Nertherlands|51.4856827|5.138406199999999
1122|Werchter, Belguim|50.9712194|4.694200899999999
1123|Shepton Mallet, UK|51.1909|-2.547886
1124|Werchter|50.9712194|4.694200899999999
1125|County Kildare, Ireland|53.2120434|-6.819470799999999
1126|Milwaukee|43.0389025|-87.9064736
1127|Chihuahua, Mexico|28.6329957|-106.0691004
1128|Wien, AT|48.2081743|16.3738189
1129|Oakland|37.8043514|-122.2711639
1130|Leipzig, Germany|51.3396955|12.3730747
1131|Heidelberg,|49.3987524|8.6724335
1132|Cork, Ireland|51.8985143|-8.4756035
1133|Parabiago|45.5493675|8.9375245
1134|York, UK|53.95996510000001|-1.0872979
1135|Middlesbrough, |54.574227|-1.234956
1136|Grimsby,|53.567471|-0.080784
1137|Doncaster, UK|53.52282|-1.128462
1138|Llangollen, Sir Ddinbych|52.969215|-3.17166
1139|pontefract|53.691688|-1.308648
1140|Leeds, United Kingdom|53.8007554|-1.5490774
1141|Leeds|53.8007554|-1.5490774
1142|Coventry, United Kingdom|52.406822|-1.519693
1143|Askern, UK|53.617273|-1.155753
1144|Turin, Italy|45.0703393|7.686864
1145|Portsmouth, Hampshire, UK|50.8197675|-1.0879769
1146|Innsbruck, Austria|47.2692124|11.4041024
1147|Weston-super-Mare, UK|51.34740499999999|-2.977255
1148|Reading|40.3356483|-75.9268747
1149|Dudley, United Kingdom|52.512255|-2.081112
1150|Finsbury Park, London|51.56457839999999|-0.1047257
1151|Exeter|42.9814292|-70.9477546
1152|Belfast, Northern Ireland, UK|54.59728500000001|-5.93012
1153|Norwich, England|52.6308859|1.297355
1154|Thornbury, VIC|-37.7587658|144.9933434
1155|Christchurch, New Zealand|-43.5320544|172.6362254
1156|Dungog, NSW|-32.4046634|151.7524146
1157|Mornington, VIC, Australia|-38.228|145.062
1158|Echuca, Victoria|-36.1459548|144.7448007
1159|Berry, NSW|-34.775278|150.693889
1160|Lorne, VIC, Australia|-38.5366556|143.9715484
1161|Wollongong, NSW, Australia|-34.4278121|150.8930607
1162|Yekaterinburg, Russia|56.83892609999999|60.6057025
1163|Villeurbanne,|45.771944|4.8901709
1164|Coventry,|41.6885978|-71.5642076
1165|Bordeaux,|44.837789|-0.57918
1166|Napa, CA|38.2975381|-122.286865
1167|Menomonie, Wisconsin|44.8755183|-91.9193422
1168|Tysons Corner, VA|38.9187222|-77.2310925
1169|Livermore, CA|37.6818688|-121.7684732
1170|Orinda, CA|37.8771476|-122.1796888
1171|Manhattan, NY|40.7830603|-73.9712488
1172|The Woodlands, TX|30.1658207|-95.46126249999999
1173|Tuscaloosa, Al|33.2098407|-87.56917349999999
1174|Edinburgh Scotland |55.953252|-3.188267
1175|Cardiff|51.48158100000001|-3.17909
1176|La Rochelle, France|46.160329|-1.151139
1177|Dachau, Germany|48.2629984|11.4339022
1178|Barcelona|41.3850639|2.1734035
1179|The Hague, Netherlands|52.0704978|4.3006999
1180|Times Square, NYC|40.759011|-73.9844722
1181|Uniondale NY|40.7003793|-73.5929056
1182|Agoura Hills, CA|34.1533395|-118.7616764
1183|Arvada. CO|39.8027644|-105.0874842
1184|Vaughan, ON|43.8563158|-79.5085383
1185|Collingswood, NJ|39.9181686|-75.07128399999999
1186|Aberdeen, Scotland|57.149717|-2.094278
1187|Huntington , NY|40.8681539|-73.425676
1188|Overland Park, KS|38.9822282|-94.6707917
1189|Rochester, |43.15657789999999|-77.6088465
1190|Gateshead,|54.95268|-1.603411
1191|Bensalem, PA|40.09944249999999|-74.9325683
1192|Fremantle WA |-32.0518191|115.7551085
1193|Brussels, BE|50.8503396|4.3517103
1194|Hengelo, Netherlands|52.2574121|6.7927725
1195|Den Haag|52.0704978|4.3006999
1196|Newtown, NSW, Australia|-33.8978149|151.1785003
1197|Launceston, TAS|-41.43322149999999|147.1440875
1198|Hobart, Tasmania, Australia|-42.8821377|147.3271949
1199|Regina, SK|50.4452112|-104.6188943
1200|Freiburg, DE|47.9990077|7.842104299999999
1201|Syracuse NY USA|43.0481221|-76.14742439999999
1202|Osaka,|34.6937249|135.5022535
1203|Victoria, BC|48.4284207|-123.3656444
1204|Borlänge|60.484304|15.433969
1205|Modesto, CA|37.63909719999999|-120.9968782
1206|Holmdel, NJ|40.3451095|-74.18403219999999
1207|Chula Vista, CA|32.6400541|-117.0841955
1208|Alexandria, VA|38.8048355|-77.0469214
1209| Buffalo, NY|42.88644679999999|-78.8783689
1210|Millbrae, CA|37.5985468|-122.3871942
1211|Strathallan Castle|56.3193725|-3.749236899999999
1212|Marmande, France|44.500484|0.159869
1213|Byron Bay, NSW|-28.6473671|153.601977
1214|Lorne, Victoria|-38.5366556|143.9715484
1215|Foxboro, MA|42.0653812|-71.2478251
1216|Garden City, NY|40.7267682|-73.6342954
1217|Manila, Philippines|14.5995124|120.9842195
1218|Jakarta, Indonesia|-6.2087634|106.845599
1219|Wilkes-Barre, PA|41.2459149|-75.88130749999999
1220|Wheaton, IL|41.8661403|-88.1070127
1221|Clifton Park, NY|42.844668|-73.8183804
1222|Gloucester, UK|51.8642449|-2.238156
1223|Newcastle|54.978252|-1.61778
1224|Deurne,|51.4642201|5.795067899999999
1225|Curitiba,|-25.4808762|-49.3044253
1226|Curitiba, Brazil|-25.4808762|-49.3044253
1227|Live Curitiba|-25.4818157|-49.2938475
1228|Bologna, IT|44.494887|11.3426162
1229|Moore Park, NSW, Australia|-33.8952578|151.2215296
1230|Prague,|50.0755381|14.4378005
1231|Lyon, FR|45.764043|4.835659
1232|Pawtucket, RI|41.878711|-71.38255579999999
1233|Brighton |40.598019|-111.583187
1234|Gold Coast|-28.016667|153.4
1235|Twickenham, UK|51.44458100000001|-0.335246
1236|Oneonta, NY|42.4528571|-75.0637746
1237|Aosta,|45.7349551|7.313076199999999
1238|Langesund,|59.0004978|9.7447181
1239|Bergamo|45.6982642|9.6772698
1240|Bergamo,|45.6982642|9.6772698
1241|Ancona,|43.6158299|13.518915
1242|Zürich,|47.3768866|8.541694
1243|Dresden,|51.0504088|13.7372621
1244|Pistoia,|43.9303475|10.9078587
1245|Skopje,|42.0050274|21.4407659
1246|Lucca,|43.8429197|10.5026977
1247|Correggio,|44.7708574|10.7819083
1248|Rockford, IL|42.2711311|-89.0939952
1249|Newport, UK|51.584151|-2.997664
1250|Trier, Germany|49.749992|6.6371433
1251|Ljubljana, Slovenia|46.0569465|14.5057515
1252|Douglasville, GA|33.7514966|-84.7477136
1253|Merriam, KS|39.0236165|-94.6935701
1254|Hempstead, NY|40.7062128|-73.6187397
1255|Lima,|-12.0463731|-77.042754
1256|Antwerpen, BE|51.2194475|4.4024643
1257|Newcastle, NSW, Australia|-32.9282712|151.7816802
1258|Dunedin, New Zealand|-45.8787605|170.5027976
1259|Canberra|-35.2809368|149.1300092
1260|Gosford|-33.426667|151.341667
1261|Maitland, NSW|-32.7383988|151.5492182
1262|Maroochydore, QLD|-26.65|153.1
1263|Sunshine Coast, QLD, Australia|-26.65|153.066667
1264|Footscray, VIC|-37.7988987|144.892357
1265| Adelaide Australia|-34.9284989|138.6007456
1266|Warragul Victoria|-38.1537515|145.9297824
1267|Genève|46.2043907|6.1431577
1268|Gräfenhainichen, DE|51.728978|12.4535112
1269|Bourges|47.081012|2.398782
1270|Valle de Bravo, México|19.1950964|-100.1326725
1271|Hasselt, BE|50.93069|5.332479999999999
1272|Oeiras, Portugal|38.6919934|-9.3118418
1273|Bogota,colombia|4.710988599999999|-74.072092
1274|Santa Fe, NM|35.6869752|-105.937799
1275|Denver, Colorado |39.7392358|-104.990251
1276|Marina di Ravenna, Italy|44.4855941|12.2822691
1277|Darlinghurst, NSW|-33.8780176|151.2204441
1278|Toulouse|43.604652|1.444209
1279|Boulevard 5, Granjas México, 08400 Ciudad de México, CDMX|19.4075908|-99.0914976
1280|Gallipoli (Le), Italy|40.05585079999999|17.9926137
1281|Barcelona, ES|41.3850639|2.1734035
1282|Beuningen, Netherlands|51.8597237|5.7691067
1283|St. Pölten|48.20353|15.63817
1284|Northcote, VIC|-37.7692917|144.9990291
1285|Middlebury, VT|44.0153371|-73.16734
1286|Windsor, ON|42.3149367|-83.03636329999999
1287|Kempten, Germany|47.7285699|10.3157835
1288|Milan |45.4642035|9.189982
1289|Luxembourg,|49.815273|6.129582999999999
1290|Brussels|50.8503396|4.3517103
1291|Tualatin, OR|45.3779988|-122.7821817
1292|Troutdale, OR|45.5407696|-122.3906213
1293|Monticello, NY|41.6556465|-74.68932819999999
1294|Oxford, UK|51.7520209|-1.2577263
1295|Brixton, London, UK|51.4612794|-0.1156148
1296|Footscray, VIC, Australia|-37.7988987|144.892357
1297|Reading, United Kingdom|51.4542645|-0.9781303
1298|Hilvarenbeek|51.4856827|5.138406199999999
1299|Blackpool, UK |53.8175053|-3.0356748
1300|Molde, Norway|62.73723520000001|7.1607306
1301|Tønsberg, Norway|59.3085573|10.4272034
1302|Oldenburg, Germany|53.1434501|8.214552099999999
1303|Suffolk, UK|52.1872472|0.9707800999999999
1304|Ostrava, Czech Republic|49.8209226|18.2625243
1305|Arendal, Norway|58.4617568|8.7724499
1306|Hilvarenbeek,|51.4856827|5.138406199999999
1307|Cuernavaca,|18.9242095|-99.22156590000002
1308|West Sacramento, CA|38.5804609|-121.530234
1309|Woodbury, TN|35.8275672|-86.0716565
1310|Copenhagen,|55.6760968|12.5683372
1311|Rutland, VT|43.6106237|-72.9726065
1312|Lantau Island,|22.2664984|113.941751
1313|Haarlem, NL|52.3873878|4.6462194
1314|De Meern, Netherlands|52.07579399999999|5.031977899999999
1315|Nelson, BC|49.4928119|-117.2948343
1316|Zottegem,|50.8695469|3.8107086
1317|Northam, South Africa|-24.9626628|27.2656959
1318|St. Augustine, FL|29.9012437|-81.31243409999999
1319|Newport, RI|41.4901024|-71.3128285
1320|Siegburg, Germany|50.7998473|7.2074514
1321|Dumfries, UK|55.070859|-3.60512
1322|Rochester ny|43.15657789999999|-77.6088465
1323|Vienna|48.2081743|16.3738189
1324|Fürth, Germany|49.4771169|10.988667
1325|Gemünden, Germany|50.0494605|9.7059316
1326|Hof, Germany|50.3135391|11.9127814
1327|Kenosha, WI|42.5847425|-87.82118539999999
1328|Vinnytsia, Ukraine|49.233083|28.4682169
1329|Waterloo, ON|43.4642578|-80.5204096
1330|Morehead, Mn|46.8737648|-96.76780389999999
1331|Juneau AK|58.3019444|-134.4197221
1332|Duluth, Minnesota|46.78667189999999|-92.1004852
1333|Heidelberg, Germany|49.3987524|8.6724335
1334|Stara Zagora, Bulgaria|42.4257769|25.6344644
1335|St. Joseph, MN|45.5647724|-94.317966
1336|Hannover, Germany|52.3758916|9.732010400000002
1337|Albuquerque|35.0843859|-106.650422
1338|Fullerton, CA|33.8703645|-117.9242123
1339|Atlanta Georgia |33.7489954|-84.3879824
1340|Bonner Springs, KS|39.059726|-94.8835754
1341|San Luis Obispo, CA|35.2827524|-120.6596156
1342|Lafayette, IN|40.4167022|-86.87528689999999
1343|Pismo Beach, CA|35.1427533|-120.6412827
1344|Dallas|32.7766642|-96.79698789999999
1345|Winnie, TX|29.8202205|-94.38407769999999
1346|Wichita, KS|37.68717609999999|-97.33005299999999
1347|Effingham, IL|39.1200418|-88.5433829
1348|Michigan|44.3148443|-85.60236429999999
1349|Columbus OH USA|39.9611755|-82.99879419999999
1350|Warren, OH|41.2375569|-80.81841659999999
1351|Baton Rouge, LA|30.4514677|-91.18714659999999
1352|Camden,|39.9259463|-75.1196199
1353|Sioux City, IA|42.4963416|-96.40494079999999
1354|Millvale, PA|40.480069|-79.9783862
1355|Verviers, Belgium|50.5910564|5.8655951
1356|Zaragoza, Spain|41.6488226|-0.8890853
1357|Urbana, IL|40.1105875|-88.2072697
1358|Burlington, VT|44.4758825|-73.21207199999999
1359|Moorhead, MN|46.8737648|-96.76780389999999
1360|Nice, France|43.7101728|7.261953200000001
1361|Monterrey,|25.6866142|-100.3161126
1362|Cleveland,  OH|41.49932|-81.6943605
1363|Hamtramck, MI|42.3928151|-83.0496438
1364|Northfield, OH|41.3450547|-81.528452
1365|Vancouver bc|49.2827291|-123.1207375
1366|Elephant & Castle, London, UK|51.4959129|-0.1004748
1367|Luik, BE|50.6325574|5.5796662
1368|Universal City, CA|34.1397694|-118.3505779
1369|Leeds, England|53.8007554|-1.5490774
1370|Pilton|51.16572530000001|-2.589688
1371|Buenos Aires, Argentina|-34.6036844|-58.3815591
1372|Cary, NC|35.79154|-78.7811169
1373|Phoenix AZ|33.4483771|-112.0740373
1374|Nagoya, Japan|35.18145060000001|136.9065571
1375|Fukuoka, Japan|33.5901838|130.4016888
1376|Alma, MI|43.3789199|-84.6597274
1377|Baltimore MD|39.2903848|-76.6121893
1378|Murietta, CA|33.5539143|-117.2139232
1379|Maitland, FL|28.6277767|-81.36312439999999
1380|Poughkeepsie, NY|41.7003713|-73.9209701
1381|Gateshead, UK|54.95268|-1.603411
1382|Arrington, VA|37.6840306|-78.9011326
1383|Gulf Shores, AL|30.2460361|-87.70081929999999
1384|Brecon Beacons, UK|51.8814731|-3.443504
1385|Woodford, QLD, Australia|-26.955|152.778
1386|Borlänge, Sweden|60.484304|15.433969
1387|Canterbury, UK|51.280233|1.0789089
1388|Newport (Isle of Wight),|50.700803|-1.291633
1389|Neuhausen Ob Eck,|47.9713967|8.9300109
1390|Scheessel, Germany|53.1697267|9.4870781
1391|Reading, England|51.4542645|-0.9781303
1392|Dover, DE|39.158168|-75.5243682
1393|Compensa|32.5273464|-117.0359024
1394|Richmond va|37.5407246|-77.4360481
1395|Buckhead, GA|33.8372663|-84.406761
1396|Columbia, MO|38.9517053|-92.3340724
1397|Guildford, Surrey, UK|51.23622|-0.570409
1398|Newcastle Upon Tyne|54.978252|-1.61778
1399|Southsea|50.783565|-1.085559
1400|Sunderland,|42.4663727|-72.5795115
1401|bingley|53.847389|-1.833781
1402|Redhill, UK|51.239208|-0.16988
1403|Bingley, UK|53.847389|-1.833781
1404|Brescia, Italy|45.5415526|10.2118019
1405|Chandler, AZ|33.3061605|-111.8412502
1406|Cebu, Philippines|10.607936|123.8857747
1407|Brambleton, VA|38.9806557|-77.5281723
1408|dekalb illlinois|41.9294736|-88.75036469999999
1409|champaign illinois|40.1164204|-88.2433829
1410|Bologna,|44.494887|11.3426162
1411|Glastonbury, UK|51.147427|-2.718454
1412|Auburn Hills, MI|42.6875323|-83.2341028
1413|Chico, CA|39.7284944|-121.8374777
1414|Long Beach, CA|33.7700504|-118.1937395
1415|Hamden, CT|41.3838782|-72.9026064
1416|Leipzig,|51.3396955|12.3730747
1417|Aachen, Germany|50.7753455|6.083886800000001
1418|Evanston, IL|42.0450722|-87.68769689999999
1419|Osnabrück, Germany|52.2799112|8.0471788
1420|Grass Valley, CA|39.2190608|-121.0610606
1421|Bern|46.9479739|7.4474468
1422|Den Helder, Netherlands|52.95628079999999|4.7607971
1423|Derby,|52.9225301|-1.4746186
1424|Barcelona, Catalunya, Països Catalans|41.379846|2.1413189
1425|Breda, Netherlands|51.5719149|4.768323
1426|Nijmegen, The Netherlands|51.8448837|5.842828099999999
1427|Camperdown, NSW|-33.88622429999999|151.1791091
1428|Goes, Netherlands|51.5046455|3.8911304
1429|Springfield, IL|39.78172130000001|-89.6501481
1430|Bloomington, IN|39.165325|-86.52638569999999
1431|Rochester Hills, MI|42.65836609999999|-83.1499322
1432|Akron, Ohio|41.0814447|-81.51900529999999
1433|Eau Claire, WI|44.811349|-91.4984941
1434|Bruges, Belgium|51.209348|3.2246995
1435| champaign illinois|40.1164204|-88.2433829
1436|Bochum, Germany|51.4818445|7.216236299999999
1437|Carmichael, CA|38.617127|-121.3282843
1438|Harlem, NY|40.8115504|-73.9464769
1439|Leuven, Belgium|50.8798438|4.7005176
1440|Kaukauna, WI|44.2780432|-88.27205029999999
1441|Hamilton, NY|42.8270136|-75.5446238
1442|Redcar, UK|54.5974636|-1.0779515
1443|The Gym|36.1183188|-95.9377155
1444|montauk|41.0359353|-71.9545146
1445|leuven|50.8798438|4.7005176
1446|Reykjavík,|64.146582|-21.9426354
1447|CDMX, México|19.4326077|-99.133208
1448|Gent, Belgium|51.0543422|3.7174243
1449|Wyandotte, MI|42.21420639999999|-83.14992389999999
1450|Sv. Filip i Jakov|43.9621868|15.4284425
1451|Marseille, FR|43.296482|5.36978
1452|Arlington Heights, IL|42.0883603|-87.98062650000001
1453|Nijmegen|51.8448837|5.842828099999999
1454|Papillon, NE|41.1544432|-96.0422378
1455|Asolo, Italy|45.79925859999999|11.9141103
1456|México|23.634501|-102.552784
1457|Greensburg, PA|40.3014581|-79.5389289
1458|Söderhamn|61.3055762|17.0628102
1459|Helsingborg, Sweden|56.0464674|12.6945121
1460|Borlänge,|60.484304|15.433969
1461| Winnipeg, Manitoba, Canada|49.895136|-97.13837439999999
1462|Ystad|55.4295051|13.8200308
1463|Aarhus|56.162939|10.203921
1464|Oslo|59.9138688|10.7522454
1465|Sunrise, Florida|26.1669711|-80.25659499999999
1466|Hobart, TAS|-42.8821377|147.3271949
1467|Barrie, ON|44.38935559999999|-79.6903316
1468|Fitzroy |45.483054|-76.2184575
1469|Lewiston, NY|43.1919494|-78.9853813
1470|Cooperstown, NY|42.7006303|-74.92432099999999
1471|George Washington|38.707982|-77.0861753
1472|Jacksonville, OR|42.31345839999999|-122.9669865
1473|Bend, OR|44.0581728|-121.3153096
1474|Savannah, Ga|32.0808989|-81.091203
1475|Shibuya, Tokyo|35.6619707|139.703795
1476|East Lansing, MI|42.7369792|-84.48386540000001
1477|Edinburgh|55.953252|-3.188267
1478|Holyoke, MA|42.2042586|-72.6162009
1479|Lincoln|40.813616|-96.7025955
1480|Wrexham, UK|53.04304|-2.992494
1481|Portsmouth|43.0717552|-70.7625532
1482|Haarlem,|52.3873878|4.6462194
1483|Ramsbottom,|53.648457|-2.32049
1484|Southwold, UK|52.32562799999999|1.680181
1485|Leicester, United Kingdom|52.6368778|-1.1397592
1486|Salisbury,|38.3606736|-75.5993692
1487|Cheltenham, UK|51.8993855|-2.0782533
1488|Farmington, NM|36.72805830000001|-108.2186856
1489|Brisbane|-27.4697707|153.0251235
1490|Rio de Janeiro, RJ, Brazil|-22.9068467|-43.1728965
1491|Edinboro, PA|41.87422249999999|-80.1317236
1492|Silverado, CA|33.7481369|-117.6406523
1493|Rome, GA|34.257038|-85.1646726
1494|Solana Beach, CA|32.991155|-117.2711481
1495|Frederick, MD|39.41426879999999|-77.4105409
1496|Saint Augustine, FL|29.9012437|-81.31243409999999
1497|St Augustine|29.9012437|-81.31243409999999
1498|Glenworth Valley, NSW|-33.4007036|151.2027854
1499|Busselton, WA|-33.6531584|115.3454892
1500|Pinetop, AZ|34.1425438|-109.9603843
1501|Clark, NJ|40.6278031|-74.3127631
1502|Coralville, IA|41.6822756|-91.5960643
1503|Ascot Vale, VIC|-37.77674440000001|144.9110705
1504|Gibbons, AB|53.8277399|-113.3249481
1505|Scheessel|53.1697267|9.4870781
1506|Las Vegas, VA|36.2851885|-115.0945083
1507|rock island illinois|41.5094771|-90.5787476
1508|Torrington, CT|41.8003049|-73.1211715
1509|Kettering, OH|39.68950359999999|-84.1688274
1510|Shelburne, VT|44.3806065|-73.227626
1511|South Orange, NJ|40.7489277|-74.2609903
1512|Shaftesbury, UK|51.0046|-2.198083
1513|Evansville, IN|37.9715592|-87.5710898
1514|Hollywood, FL|26.0112014|-80.1494901
1515|Lyon|45.764043|4.835659
1516|Warwick, RI|41.7001009|-71.4161671
1517|Nijmegen,|51.8448837|5.842828099999999
1518|Inverness, UK|57.477773|-4.224721
1519|County Kildare,|53.2120434|-6.819470799999999
1520|Wetherby, England|53.92705600000001|-1.384816
1521|Nonantola, Modena, Italy|44.67887470000001|11.0411597
1522|Pontypridd,|51.60077399999999|-3.342314
1523|Sandvika, Norway|59.8909053|10.5277867
1524|Kristiansand, Norway|58.15991189999999|8.0182064
1525|Brouwersdam|51.7630033|3.8536926
1526|Bydgoszcz, Poland|53.12348040000001|18.0084378
1527|Landgraaf, NL|50.8927646|6.0224085
1528|Tourcoing, France|50.724993|3.16207
1529|Northfield, MN|44.4582983|-93.161604
1530|Brunswick, VIC|-37.7670374|144.9621035
1531|Gaithersburg, MD|39.1439689|-77.2016062
1532|High Wycombe, UK|51.628611|-0.7482289999999999
1533|Aalborg, Denmark|57.0488195|9.921747
1534|St. John's, NL, Canada|47.5615096|-52.7125768
1535|Digbeth, UK|52.4754938|-1.8881111
1536| brooklyn, new york|40.6781784|-73.9441579
1537|Le Lignon, Switzerland|46.2040741|6.0959812
1538|Santiago,|-33.4488897|-70.6692655
1539|Cedar Rapids, IA|41.9778795|-91.6656232
1540|Birmingham, Alabama|33.5185892|-86.8103567
1541|Ybor City, FL|27.9645757|-82.42595179999999
1542|Big Sur, CA|36.2704233|-121.8080556
1543|Jacksonville Beach, FL|30.2841224|-81.3961338
1544|Schwenksville, PA|40.256213|-75.4637876
1545|Nelsonville, OH|39.458681|-82.23181559999999
1546|Brooklyn, MI|42.105874|-84.2482819
1547|Kharkiv, Ukraine|49.9935|36.230383
1548|Elmira, NY|42.0897965|-76.8077338
1549|Green Bay, WI|44.5133188|-88.0132958
1550|Grand Island, NE|40.9263957|-98.3420118
1551|Jackson, MS|32.2987573|-90.1848103
1552|Grand Rapids MI|42.9633599|-85.6680863
1553|Bucharest,|44.4267674|26.1025384
1554|Warsaw|52.2296756|21.0122287
1555|Peoria, IL|40.6936488|-89.5889864
1556| rosemont illinois|41.98675069999999|-87.8721602
1557|Carcassonne,|43.2132151|2.3517703
1558| rosemont illinoisc|41.98675069999999|-87.8721602
1559|Stuttgart,|48.7758459|9.1829321
1560|east troy wisconsin|42.7852922|-88.40509600000001
1561|Rio de Janeiro,|-22.9068467|-43.1728965
1562|Snoqualmie, Wa|47.5287132|-121.8253906
1563|St. Paul, Minnesota|44.9537029|-93.0899578
1564|Montreal Qc Canada|45.5016889|-73.567256
1565|Frankfurt/Main|50.1109221|8.6821267
1566|St Petersburg, Florida|27.7676008|-82.64029149999999
1567|San Juan Capistrano, CA|33.5019027|-117.6627655
1568|Bolingbrook, IL|41.69864159999999|-88.0683955
1569|Ramona, CA|33.04136039999999|-116.8792553
1570|Puyallup, WA|47.1853785|-122.2928974
1571|Hermosa Beach, CA|33.8622366|-118.3995194
1572|Torrensville |-34.9174945|138.5612516
1573|Ewing, NJ|40.2599864|-74.79091249999999
1574|East Lansing MI|42.7369792|-84.48386540000001
1575|Purchase, NY|41.0400135|-73.7144477
1576|Quincy, WA|47.2342997|-119.8525504
1577|Bowling Green, KY|36.9685219|-86.4808043
1578|Santiago, Chile|-33.4488897|-70.6692655
1579|Utica, NY|43.100903|-75.232664
1580|Kennewick, WA|46.2086683|-119.119948
1581|Ocean City, MD|38.3365032|-75.0849058
1582|Minot, ND|48.2329668|-101.2922906
1583|Poplar Bluff, MO|36.7569994|-90.392888
1584|Casper, WY|42.8500769|-106.3251749
1585|Dubuque, IA|42.50226610000001|-90.66546749999999
1586|Tupelo, MS|34.2576066|-88.7033859
1587|South Bend, IN|41.6763545|-86.25198979999999
1588|Grayslake, Il|42.34446639999999|-88.04174599999999
1589|Zapopan, Mexico|20.6719563|-103.416501
1590|Alkmaar, Netherlands|52.6323813|4.753375399999999
1591|Grindelwald, Switzerland|46.624164|8.0413962
1592|Milton Keynes,|52.0406224|-0.7594171
1593|Dresden, Germany|51.0504088|13.7372621
1594|Hilvarenbeek, NL|51.4856827|5.138406199999999
1595|Upton upon Severn, Worcestershire, UK|52.065357|-2.217407
1596|Douglas, UK|55.55733499999999|-3.847176
1597|Johnstown, Naas, Co. Kildare, Ireland|53.2317452|-6.6294112
1598|Camden, London, UK|51.55170589999999|-0.1588255
1599|Macclesfield, UK|53.258663|-2.119287
1600|Belgrade, Serbia|44.786568|20.4489216
1601|Mantova, Italy|45.1564168|10.7913751
1602|Pontoglio|45.559101|9.855311100000002
1603|Varese,|45.82059890000001|8.8250576
1604|El Paso, Texas|31.7618778|-106.4850217
1605|Poznan,|52.406374|16.9251681
1606|Poznań, Poland|52.406374|16.9251681
1607|Rutherford NJ|40.826489|-74.10680909999999
1608|Saratoga, CA|37.2638324|-122.0230146
1609|Groningen, NL|53.2193835|6.5665017
1610|Marrickville, NSW|-33.908667|151.1524142
1611|Bunbury, WA|-33.3209971|115.6383482
1612|Flemington, VIC|-37.7833035|144.9277474
1613|Geelong, VIC, Australia|-38.1499181|144.3617186
1614| London, England|51.5073509|-0.1277583
1615|Framingham, MA|42.279286|-71.4161565
1616|Concord, NH|43.2081366|-71.5375718
1617|Towson, MD|39.4014955|-76.6019125
1618|Fairfield, CT|41.1408363|-73.2612615
1619|Surry Hills, NSW|-33.886111|151.211111
1620|Cortland, NY|42.6011813|-76.1804843
1621|Williamsport, PA|41.2411897|-77.00107860000001
1622|Somerville, MA|42.3875968|-71.0994968
1623|Brookhaven, NY|40.8273786|-72.995048
1624|Brest|48.390394|-4.486076
1625|Otok Pag|44.4672189|14.9916875
1626|Ascot, QLD|-27.431944|153.065
1627|Joondalup, WA|-31.73392179999999|115.7657296
1628|Salacgriva, Latvia|57.7581391|24.3543455
1629|Steventon,|51.62533000000001|-1.328262
1630|Bourges, France|47.081012|2.398782
1631|Mysłowice, Poland|50.2080466|19.1660513
1632|Oakbank, SA|-34.9812499|138.8365964
1633|Meredith, VIC, Australia|-37.8459801|144.0766524
1634|Meredith, VIC|-37.8459801|144.0766524
1635|Stafford, Texas|29.6160671|-95.55772209999999
1636|Lincoln Ne|40.813616|-96.7025955
1637|Rock Island, IL|41.5094771|-90.5787476
1638|Stroudsburg, PA|40.9867609|-75.1946248
1639|Regina Saskatchewan|50.4452112|-104.6188943
1640|Cape Coral, FL|26.5628537|-81.9495331
1641|Independence, MO|39.0911161|-94.41550679999999
1642|Cadott, WI|44.9480187|-91.15070310000002
1643|Duluth, GA|34.0028786|-84.1446376
1644|Camden NJ|39.9259463|-75.1196199
1645|Noblesville, IN|40.0455917|-86.0085955
1646|Antioch, TN|36.0597177|-86.6715948
1647|Highland Park, IL|42.1816918|-87.8003437
1648|Alpharetta, Georgia|34.0753762|-84.2940899
1649|Richfield, OH|41.2397772|-81.6381785
1650|Mankato, MN|44.1635775|-93.99939959999999
1651|Lenox, MA|42.35646089999999|-73.2848762
1652|Den Haag, Netherlands|52.0704978|4.3006999
1653|Linlithgow, Scotland|55.9716266|-3.6025847
1654|Redmond, WA|47.6739881|-122.121512
1655|Saratoga Springs, NY|43.0831301|-73.7845651
1656|Geleen, Netherlands|50.9672139|5.8277247
1657|Shelton, CT|41.3164856|-73.0931641
1658|Nogent sur Marne, France|48.83763099999999|2.481699
1659|Bournemouth|50.719164|-1.880769
1660|Woodstock,  illinois|42.3147436|-88.44870209999999
1661| highland park illinois|42.1816918|-87.8003437
1662|Lanark, Scotland|55.673865|-3.782138
1663|Garden City, ID|43.6221108|-116.2381744
1664|Gurgaon|28.4594965|77.0266383
1665|Whitby, ON|43.8975446|-78.94293290000002
1666|Salzburg, Austria|47.80949|13.05501
1667|Paredes de Coura,|41.9130455|-8.5614589
1668|Scheeßel, DE|53.1697267|9.4870781
1669|Elizabeth, NJ|40.6639916|-74.2107006
1670|Atlantic Ocean|-14.5994134|-28.6731465
1671|Glastonbury|51.147427|-2.718454
1672|Heerlen,|50.88817419999999|5.9794988
1673|Hohenfelden, Germany|50.8784612|11.1613214
1674|Derbyshire, UK|53.1046782|-1.5623885
1675|Münster, DE|51.9606649|7.6261347
1676|Castle Donington,|52.845016|-1.3373001
1677|Flint, MI|43.0125274|-83.6874562
1678|odessa, tx|31.8456816|-102.3676431
1679|Columbus, GA|32.4609764|-84.9877094
1680|Weedsport, NY|43.048677|-76.5627197
1681|Sparks, NV|39.5349112|-119.7526886
1682|Muskegon Mi|43.2341813|-86.24839209999999
1683|Mineral Wells, WV|39.1788338|-81.5116809
1684|Eastlake, OH|41.65393590000001|-81.4503924
1685|Halethorpe, MD|39.2401735|-76.6806441
1686|Belvidere, Illinois |42.2639098|-88.84426739999999
1687|Richmond, VIC, Australia|-37.823|144.998
1688|Margate,|26.2445263|-80.206436
1689|Leuven,|50.8798438|4.7005176
1690|Wembley, London, UK|51.550501|-0.3048409
1691|Oxfordshire, UK|51.7612056|-1.2464674
1692|Derbyshire|53.1046782|-1.5623885
1693|Cumbria, UK|54.5772323|-2.7974835
1694|Long Island, NY|40.789142|-73.13496099999999
1695|Newburgh, NY|41.5034271|-74.0104178
1696|Newark, DE|39.6837226|-75.74965720000002
1697|New Braunfels, TX|29.7030024|-98.1244531
1698|Kingston, RI|41.48037910000001|-71.52255980000001
1699|West Babylon, NY|40.718155|-73.354287
1700|Sesto al Reghena |45.8483773|12.8153949
1701|Vlieland, NL|53.25018439999999|4.9514271
1702|Aarhus,|56.162939|10.203921
1703|Erpe|50.9338285|3.9768861
1704|Erpe-Mere, BE|50.914137|3.9568328
1705|Weston-under-Lizard,|52.6953896|-2.2898264
1706|Mason, OH|39.3600586|-84.309939
1707|1 Harry S. Truman Drive, Landover, Maryland|38.88920050000001|-76.83748779999999
1708|Magna, UT|40.7091121|-112.1016088
1709|Chiacgo, IL|41.8781136|-87.6297982
1710|Baarlo, NL|51.3301266|6.0950702
1711|St Albans, UK|51.752725|-0.339436
1712|Leiden,|52.1601144|4.4970097
1713|Danbury, CT|41.394817|-73.4540111
1714|Rotterdam, NL|51.9244201|4.4777326
1715|Papillion, NE|41.1544432|-96.0422378
1716|Lyons, CO|40.2247075|-105.271378
1717|Hamilton, NJ|40.2115109|-74.6796651
1718|Scranton, PA|41.408969|-75.66241219999999
1719|peoria il|40.6936488|-89.5889864
1720|Mount Clemens, MI|42.5972563|-82.8779754
1721|New Jersey|40.0583238|-74.4056612
1722|pgh pa|40.44062479999999|-79.9958864
1723|Pryor, OK|36.3084275|-95.31691359999999
1724|Sturgis, SD|44.4097069|-103.5090786
1725|Durham, NH|43.1339545|-70.9264393
1726|Fishers, IN|39.9567548|-86.01335
1727|St. Kilda, VIC, Australia|-37.864|144.982
1728|Germantown, TN|35.0867577|-89.8100858
1729|Naperville, IL|41.7508391|-88.1535352
1730|Peterborough, U.K.|52.56949849999999|-0.2405299
1731|Hengelo, NL|52.2574121|6.7927725
1732|Kent, OH|41.1536674|-81.3578859
1733|Ontario, CA|34.0633443|-117.6508876
1734|Oulu, Finland|65.0120888|25.4650772
1735|Ulm, Germany|48.4010822|9.987607599999999
1736|Rüsselsheim, Germany|49.9887497|8.4216976
1737|Downers Grove, IL|41.8089191|-88.01117459999999
1738|Launceston, Tas, AU|-41.43322149999999|147.1440875
1739|Sutton, Surrey, UK|51.3614279|-0.193961
1740|Lynn, MA|42.46676300000001|-70.9494938
1741|Grimsby, UK|53.567471|-0.080784
1742|Whitewater, WI|42.83362049999999|-88.7323272
1743|Carbondale, IL|37.7272727|-89.2167501
1744|Killington, VT|43.6775677|-72.77982469999999
1745|Rockford Illinois|42.2711311|-89.0939952
1746|Winter Park, FL|28.5999998|-81.33923519999999
1747|Beach Haven, NJ|39.5592848|-74.2431962
1748|crown point indiana|41.4169806|-87.3653135
1749|Torhout, BE|51.06498|3.10157
1750|Lignano Sabbiadoro, IT|45.6685554|13.1040857
1751|Stirling,|56.1165227|-3.9369029
1752|Pratteln, CH|47.5183198|7.6919889
1753|Basel, CH|47.5595986|7.5885761
1754|Kavarna, Bulgaria|43.43305609999999|28.3351756
1755|Zoetermeer, Netherlands|52.060669|4.494025
1756|Minden, Germany|52.2964919|8.894920599999999
1757|West Chester, PA|39.9606643|-75.6054882
1758|Swindon, UK|51.55577390000001|-1.7797176
1759|Topeka, KS|39.0473451|-95.67515759999999
1760|charleston illinois|39.4961458|-88.1761521
1761|Riverdale, NJ|40.9939865|-74.3034823
1762|evanston illinois|42.0450722|-87.68769689999999
1763| New york, New York|40.7127753|-74.0059728
1764|Ridgewood, NJ|40.9792645|-74.11653129999999
1765|Lampe, MO|36.5636755|-93.43796390000001
1766|Hoffman Estates, IL|42.0629915|-88.12271989999999
1767|Durham, NC|35.9940329|-78.898619
1768|Las Vegas, NV - USA|36.1699412|-115.1398296
1769|Saint Charles, MO|38.7881062|-90.4974359
1770|Bradford, UK|53.795984|-1.759398
1771|PA|41.2033216|-77.1945247
1772| Lafayette, LA|30.2240897|-92.0198427
1773|Hebden Bridge, UK|53.74330399999999|-2.013021
1774|New Britain, CT|41.6612104|-72.7795419
1775|Ybor City, Florida|27.9645757|-82.42595179999999
1776|Maccau, China|22.198745|113.543873
1777|Berlin|52.52000659999999|13.404954
1778|Shepherd's Bush, London, UK|51.50977719999999|-0.2345659
1779|Clarkston, MI|42.7351196|-83.4192941
1780|Madison WI|43.0730517|-89.4012302
1781|Warwick, UK|52.28231599999999|-1.584927
1782|Stornoway, UK|58.209435|-6.3848692
1783|Dorset, UK|50.7487635|-2.3444786
1784|Oostende, Belgium|51.21543|2.928656
1785|Criccieth,|52.919565|-4.233645
1786|Bath, UK|51.3810641|-2.3590167
1787|Hammersmith, London, UK|51.491187|-0.223731
1788|Salford, UK|53.48752349999999|-2.2901264
1789|Kensington, London, UK|51.4937982|-0.1917614
1790|Melbourne, |-37.8136276|144.9630576
1791|Maida Vale, London|51.5299092|-0.1860307
1792|Saint-Malo,|48.649337|-2.025674
1793|Doncaster, United Kingdom|53.52282|-1.128462
1794|Wakefield, United Kingdom|53.683298|-1.505924
1795|Croyson|51.376165|-0.098234
1796|Northampton, UK|52.240477|-0.9026560000000001
1797|North Perth, WA|-31.9273833|115.852472
1798|Stoke On Trent, UK|53.002668|-2.179404
1799|Hemel Hempstead|51.753241|-0.448632
1800|Portsmouth, United Kingdom|50.8197675|-1.0879769
1801|Derry, Ireland|54.9966124|-7.3085748
1802|Lochem, NL|52.15866459999999|6.4098158
1803|Chipping Norton|51.943544|-1.542189
1804|Perth, UK|56.394994|-3.4308381
1805|Criccieth, UK|52.919565|-4.233645
1806|Galway,|53.270668|-9.0567905
1807|Cocoa Beach, FL|28.3200067|-80.6075513
1808|Hallandale, FL|25.9812024|-80.14837899999999
1809|Vacaville, CA|38.3565773|-121.9877444
1810|Corvallis, OR|44.5645659|-123.2620435
1811|Shrewsbury, UK|52.70730289999999|-2.7553268
1812|Blackburn, UK|53.748575|-2.487529
1813|Burlington,  Iowa|40.8076529|-91.1128901
1814|Wellingborough,|52.302419|-0.6939639999999999
1815|Leicester,|52.6368778|-1.1397592
1816|Pasadena, CA|34.1477849|-118.1445155
1817|Marcy, NY|43.1706253|-75.2915564
1818|Northampton,|42.3250896|-72.64120129999999
1819|Middleton uk|53.545921|-2.201948
1820|Loughborough University UK|52.7650814|-1.2320534
1821|Thornbury, VIC, Australia|-37.7587658|144.9933434
1822|Breda|51.5719149|4.768323
1823|Naas, Ireland|53.2205654|-6.659307999999999
1824|Offenbach,|50.09563620000001|8.776084299999999
1825|Surrey, BC|49.1913466|-122.8490125
1826|Bridlington,|54.08535|-0.198802
1827|North Bethesda, MD|39.0445535|-77.11886779999999
1828|Ibiza, Spain|39.0200099|1.4821482
1829|Gießen, DE|50.5837248|8.679682
1830|Bordeaux, France|44.837789|-0.57918
1831|Martinsburg, WV|39.4562099|-77.96388689999999
1832|Mississauga, ON|43.5890452|-79.6441198
1833|Owensboro, KY|37.7719074|-87.1111676
1834|Beverly Hills, CA|34.0736204|-118.4003563
1835|Chciago|41.8781136|-87.6297982
1836|Atlantc City|39.3642834|-74.4229266
1837|St. Kilda, VIC|-37.864|144.982
1838|Elgin, IL|42.0354084|-88.2825668
1839|Clemson, SC|34.6834382|-82.8373654
1840|  peoria illinois|40.6936488|-89.5889864
1841|Newcastle, England|54.978252|-1.61778
1842|Newport, KY|39.091449|-84.4957757
1843|Hallendale Beach, FL|25.9812024|-80.14837899999999
1844|Citrus Heights, CA|38.7071247|-121.2810611
1845|Augusta ga|33.4734978|-82.0105148
1846|Bryste|51.454513|-2.58791
1847|Saint-Malo, France|48.649337|-2.025674
1848|Newtown NSW|-33.8978149|151.1785003
1849|Deurne|51.4642201|5.795067899999999
1850|BIRMINGHAM U.K.|52.48624299999999|-1.890401
1851|Portsmouth, VA|36.8354258|-76.2982742
1852|Arnhem, The Netherlands |51.9851034|5.898729599999999
1853|Norman, Ok|35.2225668|-97.4394777
1854|Cluj-Napoca,|46.7712101|23.6236353
1855|Montreux,|46.4312213|6.9106799
1856|Madrid,|40.4167754|-3.7037902
1857|Penrose,|40.7754438|-73.95314259999999
1858|athens |37.9838096|23.7275388
1859|Nesbyen|60.5680861|9.1027428
1860|Spicewood, TX|30.4760499|-98.15657399999999
1861|Cholula, México|19.0765772|-98.30211919999999
1862|West Des Moines, IA|41.5638902|-93.75938409999999
1863|Windsor Ontario |42.3149367|-83.03636329999999
1864|Elgin  illlinois|42.0354084|-88.2825668
1865|Parma, Italy|44.801485|10.3279036
1866|Jerusalem, Israel|31.768319|35.21371
1867|Kohler, WI|43.7391616|-87.7817541
1868|Lancaster, California|34.6867846|-118.1541632
1869|Ysselsteyn|51.48983339999999|5.896836299999999
1870|Simferopol, Crimea|44.952117|34.102417
1871|effingham illinois|39.1200418|-88.5433829
1872|Echo Park, CA|34.0781593|-118.2605574
1873|Santa Clara, CA|37.3541079|-121.9552356
1874|Canterbury,|51.280233|1.0789089
1875|Lorne, VIC|-38.5366556|143.9715484
1876|Abersoch, UK|52.824497|-4.5053599
1877|Squamish, BC|49.7016339|-123.1558121
1878|Cornwall,|50.26604709999999|-5.0527125
1879|Salford, Manchester, UK|53.48752349999999|-2.2901264
1880|Bath,|51.3810641|-2.3590167
1881|Powys, UK|52.6464249|-3.3260904
1882|Sherwood Park, AB|53.5411916|-113.2957355
1883|Perth, WA, Australia|-31.9505269|115.8604572
1884|bettendorf iowa|41.5262641|-90.50725729999999
1885|Basel, Switzerland|47.5595986|7.5885761
1886|Brunswick |39.109609|-95.087839
1887|Maastricht,|50.8513682|5.6909725
1888|Arnhem,|51.9851034|5.898729599999999
1889|Chanhassen, MN|44.86196450000001|-93.53231029999999
1890|Wildenrath|51.1264024|6.1905085
1891|Kiel, Germany|54.3232927|10.1227651
1892|Venaria,Italy|45.1437329|7.623289199999999
1893|Twickenham,|51.44458100000001|-0.335246
1894|München, DE|48.1351253|11.5819805
1895|Salford,|53.48752349999999|-2.2901264
1896|Croydon, UK|51.376165|-0.098234
1897|Crawley, West Sussex, UK|51.1091401|-0.1872275
1898|Truro|41.99477|-70.0490107
1899|Weymouth, UK|50.6144279|-2.457621
1900|Eibergen, Netherlands|52.1000198|6.6612002
1901|Knokke-Heist|51.34635|3.28586
1902|Solihull, UK|52.411811|-1.77761
1903|Farnham, Surrey, UK|51.214321|-0.798802
1904|Parramatta, NSW|-33.8135571|151.003407
1905|Werribee, VIC|-37.8997995|144.6641401
1906| Toronto, ON|43.653226|-79.3831843
1907|Carnival City, Johanesburg|-26.2575229|28.3166577
1908|Szczecin, Poland|53.4285438|14.5528116
1909|Köln|50.937531|6.9602786
1910|Chelsea, London, UK|51.4869429|-0.170037
1911|Buftea, Romania|44.56297439999999|25.9388214
1912|Liège, Belgium|50.6325574|5.5796662
1913|Chelmsford, UK|51.7355868|0.4685497
1914|Piešťany, SK|48.5917973|17.827155
1915|Indio CA|33.7205771|-116.2155619
1916|Stans, Switzerland|46.9571926|8.3659672
1917|Portsmouth, NH|43.0717552|-70.7625532
1918|Pawling, NY|41.5796695|-73.5829689
1919|Falls Church, VA|38.88233400000001|-77.1710914
1920|Ridgefield, CT|41.28406349999999|-73.4975412
1921|Beverly, MA|42.5584283|-70.880049
1922|Plattsburgh, NY|44.6994873|-73.4529124
1923|Annapolis, MD|38.9784453|-76.4921829
1924|Harrisburg, PA|40.2731911|-76.8867008
1925|Thornville, OH|39.896454|-82.4201539
1926|St. Petersburg|27.7676008|-82.64029149999999
1927|Braga,|41.5454486|-8.426506999999999
1928|Easton, MD|38.7742826|-76.0763305
1929|7913 Gallowae Ct, Mentor, OH|41.6884463|-81.3585157
1930|Plock, Poland|52.5463446|19.7065364
1931|Swansea, UK|51.62144|-3.943645999999999
1932|Pilton, UK|51.16572530000001|-2.589688
1933|Newmarket, England|52.24487999999999|0.407962
1934|Waukegan, IL|42.3636331|-87.84479379999999
1935|jones beach NY|40.6106158|-73.4445392
1936|Sahuarita, AZ|31.9575818|-110.955646
1937|Cambridge, England|52.205337|0.121817
1938|Mainz, Germany|49.9928617|8.2472526
1939|iowa city iowa|41.6611277|-91.5301683
1940|Passaic NJ|40.8567662|-74.1284764
1941|Culver City, CA|34.0211224|-118.3964665
1942|Highland Park, CA|34.1154946|-118.1843898
1943|Oro-Medonte, ON|44.56205140000001|-79.5920352
1944|Kyiv (Kiev), Ukraine|50.4501|30.5234
1945|Morelos, México|18.6813049|-99.1013498
1946|Querétaro, México |20.5887932|-100.3898881
1947|Kibbutz Lehavot Habashan|33.1412178|35.6478714
1948|Cuautla,|18.8126047|-98.9548261
1949|Swansea,|51.62144|-3.943645999999999
1950|Dalkeith Scotland |55.89311799999999|-3.066606
1951|Lautertal-Reichenbach, Germany|49.7110564|8.694319799999999
1952|Charleville-Mézières,|49.76208500000001|4.726096
1953|Naas,|53.2205654|-6.659307999999999
1954|Nürburg,|50.3418803|6.9520304
1955|Valencia,|28.5217613|-81.463472
1956|Toowoomba, QLD|-27.5598212|151.9506696
1957|St Kilda|57.83481330000001|-8.5635441
1958|Dalby, QLD|-27.1944226|151.2659802
1959|Langhorne Creek, SA|-35.29625559999999|139.038277
1960|Victoria, Australia|-37.4713077|144.7851531
1961|Lucca, Italy|43.8429197|10.5026977
1962|Boston, Mass|42.3600825|-71.0588801
1963|North Little Rock, AR|34.769536|-92.2670941
1964|Connecticut |41.6032207|-73.087749
1965|Athens ga|33.9519347|-83.357567
1966|Huntington Beach, CA|33.6594835|-117.9988026
1967|Burgettstown, PA|40.3820132|-80.3928423
1968|Garden Grove, CA|33.7742692|-117.9379952
1969|Durham|35.9940329|-78.898619
1970|Louth UK|53.365962|-0.007710999999999999
1971|Colchester, UK|51.895927|0.8918740000000001
1972|Cambridge,|52.205337|0.121817
1973|Rugby, UK|52.370878|-1.265032
1974|Frankfurt, DE|50.1109221|8.6821267
1975|Kongsberg|59.66887759999999|9.6501891
1976|Langesund, Norway|59.0004978|9.7447181
1977|Turnhout, BE|51.3216509|4.9375578
1978|Antwerp|51.2194475|4.4024643
1979|Hahn, DE|36.0659813|-95.8606786
1980|Kristiansand,|58.15991189999999|8.0182064
1981|Bonn,|50.73743|7.0982068
1982|Denton, TX|33.2148412|-97.13306829999999
1983|Daytona Beach, FL|29.2108147|-81.0228331
1984|Brooks, Ca|38.7395726|-122.1484141
1985|Bethnal Green, London, UK|51.531103|-0.0480805
1986|Benicassim,|40.055385|0.0641504
1987|Bradley, UK|53.93025|-1.997152
1988|St Pölten,|48.20353|15.63817
1989|Prestatyn, Sir Ddinbych|53.336512|-3.407613
1990|San Franciso, CA|37.7749295|-122.4194155
1991|Hanley, Stoke-on-Trent, United Kingdom|53.023414|-2.1723921
1992|Toulouse,|43.604652|1.444209
1993|Perpignan,|42.6886591|2.8948332
1994|Helotes, TX|29.56959459999999|-98.7068269
1995|Collingwood, Vic, Australia |-37.8019|144.98815
1996|Stone Mountain, GA|33.8081608|-84.17019599999999
1997|Canandaigua, NY|42.887535|-77.2816984
1998|Torrance, CA|33.8358492|-118.3406288
1999|Billings, MT|45.7832856|-108.5006904
2000|Oakville, CA|38.4366996|-122.402785
2001|Preston, England|53.763201|-2.70309
2002|Montpellier, FR|43.610769|3.876716
2003|Mestre|45.4934881|12.2463181
2004|Brunswick, VIC, Australia|-37.7670374|144.9621035
2005|Ipswich, QLD|-27.623|152.76
2006|Newtown|41.4141172|-73.3035651
2007|Parkville, VIC, Australia|-37.7792703|144.9485258
2008| San Francisco, CA|37.7749295|-122.4194155
2009|TOLUCA, MEXICO|19.2826098|-99.6556653
2010|Gräfenhainichen,|51.728978|12.4535112
2011|Pittsburg Pa|40.44062479999999|-79.9958864
2012|Novara|42.25811119999999|-71.0398289
2013|University City, MO|38.6682407|-90.3324856
2014|Bondi|-33.8914755|151.2766845
2015|Morris Plains, NJ|40.83959220000001|-74.4818698
2016|Shakopee, MN|44.7973962|-93.5272861
2017|Ascot|29.7817851|-95.55949369999999
2018|Overton|35.689549|-80.47415749999999
2019|Isle Of Wight|50.69384789999999|-1.304734
2020|Hampshire, UK|51.05769480000001|-1.3080629
2021|Henley-on-thames,|51.535764|-0.902894
2022|Donostia|43.318334|-1.9812313
2023|Burgas, Bulgaria|42.50479259999999|27.4626361
2024|Avenches|46.8806009|7.0427075
2025|Bærum, Norway|59.95742329999999|10.4786125
2026|Torhout, Belgium|51.06498|3.10157
2027|Löbnitz bei Leipzig|51.5907385|12.4633051
2028|Frauenfeld,|47.5535997|8.8987541
2029|Rodatychi, near Lviv|49.799354|23.518328
2030|Burgum, Netherlands|53.1936901|5.9913642
2031|Černovická terasa, Brno|49.1734403|16.6742034
2032|Vitoria-Gasteiz, Spain|42.8591656|-2.681791800000001
2033|Ringe, Denmark|55.2361467|10.4796902
2034|Trencin, Slovakia|48.884936|18.0335208
2035|galesburg illinois|40.94781580000001|-90.3712395
2036|Venice, FL|27.0997775|-82.4542632
2037|Wabash, IN|40.797821|-85.8205411
2038|Harrington, DE|38.9237244|-75.5777033
2039|Cambridge, United Kingdom|52.205337|0.121817
2040|Jackson, NJ|40.0918895|-74.35874729999999
2041|Mason City, IA|43.1535728|-93.20103669999999
2042|Glenorchy, TAS|-42.833056|147.275833
2043|Longirod|46.4951923|6.2585349
2044|Caldwell, ID|43.66293839999999|-116.6873596
2045|Trondheim|63.4305149|10.3950528
2046|Aston, PA|39.86481939999999|-75.4257325
2047|Voss|36.033245|-95.85802199999999
2048|Rotselaar, Belgium|50.9536709|4.7183791
2049|Arvika, Sweden|59.6548534|12.592136
2050|Staffordshire,|52.8792745|-2.0571868
2051|Greeley, CO|40.4233142|-104.7091322
2052|Plano, TX|33.0198431|-96.6988856
2053|Vancouver, WA|45.6257379|-122.6760886
2054|Nassau, Bahamas|25.0443312|-77.3503609
2055|Corbin, KY|36.9486986|-84.0968761
2056|Perrysburg, OH|41.556996|-83.627157
2057|Rapid City, OK|44.0805434|-103.2310149
2058|bloomsburg pa|41.003698|-76.4549457
2059|Bismark, SD|43.7753901|-103.5127229
2060|Benoit, WI|46.5018907|-91.0768585
2061|Surfers Paradise, QLD|-28.0|153.416667
2062|West Lafayette, IN|40.4258686|-86.90806549999999
2063|West Valley City, UT|40.6916132|-112.0010501
2064|Le Castellet, FR|43.203551|5.776755
2065|Hayward, CA|37.6687665|-122.0809964
2066|Pensacola, FL|30.42130899999999|-87.2169149
2067|Berwyn, IL|41.85058739999999|-87.7936685
2068|Freeport, ME|43.8570065|-70.1031201
2069|Elk Grove, CA|38.4087993|-121.3716178
2070|Darwin, AUS|-12.4634403|130.8456418
2071|Vallejo, CA|38.1040864|-122.2566367
2072|Freeport, Maine|43.8570065|-70.1031201
2073|Rosario, Argentina|-32.9587022|-60.69304159999999
2074|Gilford, NH|43.5475771|-71.4067385
2075|Ada, OK|34.774531|-96.6783449
2076|San Berdino |34.1083449|-117.2897652
2077|Joinville, SC|-26.2834213|-48.8452269
2078|decatur illinois|39.8403147|-88.9548001
2079|Wales, UK|52.1306607|-3.7837117
2080|Placerville, CA|38.7296252|-120.798546
2081|Gold Coast qld|-28.016667|153.4
2082|Villeurbanne|45.771944|4.8901709
2083|Wilmington, MA|42.5481714|-71.1724467
2084|Auburn, NY|42.9317335|-76.5660529
2085|Ojai, CA|34.4480495|-119.242889
2086|College Corner, OH|39.5675514|-84.8144004
2087|Columbia SC|34.0007104|-81.0348144
2088|Rio Rancho, NM|35.2327544|-106.6630437
2089|Lisle, IL|41.801141|-88.0747875
2090|Melbourne,  Australia|-37.8136276|144.9630576
2091|Willmar, MN|45.1223711|-95.048659
2092|Tufnell park|51.55633479999999|-0.1374941
2093|Wantaugh, NY|40.6837121|-73.5101258
2094|queretaro, mexico|20.5887932|-100.3898881
2095|West Palm Beach, FL|26.7153424|-80.0533746
2096|Rogers, AR|36.3320196|-94.1185366
2097|East Boston, MA|42.37021370000001|-71.0388601
2098|Paso Robles, CA|35.6368759|-120.6545022
2099|Sterling Heights, MI|42.5803122|-83.0302033
2100|Levittown, NY|40.7259336|-73.51429209999999
2101|Plainview, NY|40.7764882|-73.4673454
2102|11300 S Houghton Rd, Tucson, AZ 85747|32.0482633|-110.7738543
2103|Dunfermline, United Kingdom|56.071741|-3.452151
2104|Leesburg, VA|39.1156615|-77.56360149999999
2105| libertyville illinois|42.2830786|-87.9531303
2106|Dothan, AL|31.2232313|-85.3904888
2107|San Leon, TX|29.4832863|-94.9221465
2108|Henderson, NV|36.0395247|-114.9817213
2109| Nashville, TN|36.1626638|-86.7816016
2110|Maquoketa, IA|42.0689088|-90.6656914
2111|Ames, IA |42.0307812|-93.63191309999999
2112|Falcon Heights, MN|44.99163230000001|-93.166333
2113|Queens College, Flushing, NY|40.73664369999999|-73.8200894
2114|Durant, OK|33.9924186|-96.39712329999999
2115|Battle Creek, Mi|42.3211522|-85.17971419999999
2116|Syracuse, NY USA|43.0481221|-76.14742439999999
2117|Petaluma, CA|38.232417|-122.6366524
2118|Moscow,|55.755826|37.6172999
2119|West Hampton, NY|40.8245437|-72.6662075
2120| Nashville,TN|36.1626638|-86.7816016
2121|forest hills, ny|40.718106|-73.8448469
2122|Roseville, MI|42.4972583|-82.9371409
2123|Concord, NC|35.4087517|-80.579511
2124|Maidstone, UK|51.270363|0.522699
2125|Mt Evelyn, VIC|-37.783|145.385
2126|Cincinnati|39.1031182|-84.5120196
2127|Vero Beach, FL|27.6386434|-80.39727359999999
2128|Harrisonburg, VA|38.4495688|-78.8689155
2129|Fitzroy, VIC|-37.801111|144.978889
2130|Coburg, VIC|-37.7412988|144.9666108
2131|Davenport, Iowa|41.5236437|-90.5776367
2132|Kinder, La|30.485479|-92.850703
2133|Woodfield, IN|42.0452921|-88.0383999
2134|Ada, OH|40.7694969|-83.8227148
2135|Sun City West, AZ|33.6619819|-112.3412726
2136|Orchard Park, NY|42.7675323|-78.7440921
2137|Cullowhee, NC|35.3137111|-83.1765333
2138|Bloomington, mn|44.840798|-93.2982799
2139|Camdenton, MO|38.0080902|-92.7446289
2140|Dhërmi, Albania|40.1509656|19.6416121
2141|Byron Bay|-28.6473671|153.601977
2142|Geelong, VIC|-38.1499181|144.3617186
2143|Johannesburg, South Africa|-26.2041028|28.0473051
2144|Abbotsford, BC|49.0504377|-122.3044697
2145|Livingston Scotland|55.90070799999999|-3.518068
2146|Northampton|42.3250896|-72.64120129999999
2147|Lyngby, Denmark|55.763516|12.4949429
2148|Lawrenceville, Pittsburgh PA |40.467569|-79.96060779999999
2149|Hammond, LA|30.5043583|-90.46119949999999
2150|Lewisburg, WV|37.8017879|-80.44563029999999
2151|Coldstream, Victoria, Australia |-37.734|145.383
2152|Yarra Valley, VIC, Australia|-37.7450808|145.7133909
2153|Lardner, Victoria|-38.2156486|145.8746249
2154|Ascot, WA|-31.9354582|115.9297299
2155|Avon, CO|39.6330673|-106.5222196
2156|Montclair, CA|34.0775104|-117.6897776
2157|Broussard, LA|30.147146|-91.9612305
2158|Ocean Springs, MS|30.4113097|-88.8278057
2159|Grand Junction, CO|39.0638705|-108.5506486
2160|Jacksonville, NC|34.7540524|-77.4302414
2161|St Peters, MO|38.7874699|-90.6298922
2162|Myrtle Beach, SC|33.6890603|-78.8866943
2163|Amityville, NY|40.6789893|-73.4170673
2164|Corona, CA|33.8752935|-117.5664384
2165|Libertyville, IL|42.2830786|-87.9531303
2166|Cedar Falls, IA|42.5348993|-92.4453161
2167|San Antonio TX|29.4241219|-98.49362819999999
2168|KCMO|39.0997265|-94.5785667
2169|Trieste, Italy|45.6495264|13.7768182
2170|Wilkesboro, NC|36.1459649|-81.1606401
2171|Smithtown, NY|40.8559314|-73.2006687
2172|Boxtel |51.601437|5.3121773
2173|Baytown, TX|29.7355047|-94.97742740000001
2174|Bridgeview, IL|41.7500323|-87.80422159999999
2175|Tunbridge Wells, UK|51.132377|0.263695
2176|Cambridge|52.205337|0.121817
2177|Oshawa, ON|43.8970929|-78.86579119999999
2178|Göppingen, Germany|48.7054382|9.6512491
2179|Stekene, Belgium|51.2063826|4.040883
2180|Howell, MI|42.6072552|-83.9293952
2181|Beaumont, TX|30.080174|-94.1265562
2182|Freehold, NJ|40.2136754|-74.3000878
2183|Valparaiso, IN|41.4730948|-87.0611412
2184|Manteno, IL|41.2505881|-87.8314324
2185|Twickenham, England|51.44458100000001|-0.335246
2186|Okinawa,|26.1201911|127.7025012
2187|Stratford, London, UK|51.5471806|-0.0081304
2188|Interlochen, MI|44.64537379999999|-85.7676077
2189|Martinsville, NJ|40.600449|-74.5595195
2190|Jamestown, NY|42.0970023|-79.23532589999999
2191|Wellesley, MA|42.296797|-71.29238769999999
2192|Amherst, MA|42.3732216|-72.5198537
2193|Bellingham, WA|48.7519112|-122.4786854
2194|Notre Dame, IN|41.7001908|-86.23793280000001
2195|Algés,|38.7010609|-9.230813699999999
2196|indianapolis|39.768403|-86.158068
2197|Oswego, NY|43.4553461|-76.5104973
2198|Pocatello, ID|42.8621042|-112.4506191
2199|Laughlin NV|35.1677771|-114.5730208
2200|Ashburn, VA|39.0437567|-77.4874416
2201|Stillwater, MN|45.056004|-92.80884429999999
2202|Braga, Portugal|41.5454486|-8.426506999999999
2203|Borgerhout,|51.2225341|4.436814399999999
2204|Kortrijk, BE|50.8194776|3.2577263
2205|Tampa|27.950575|-82.4571776
2206|Laramie, WY|41.3113669|-105.5911007
2207|Ankara, TR|39.9333635|32.8597419
2208|Waldeck, Germany|51.2076269|9.0646516
2209|Geldern-Walbeck, Germany|51.4979206|6.239735899999999
2210|San Sebastián, Spain|43.318334|-1.9812313
2211|Hebden Bridge,|53.74330399999999|-2.013021
2212|Salamanca, Spain|40.9701039|-5.663539699999999
2213|Alexandra Palace, London, UK|51.5980515|-0.1198571
2214|Toluca, MX|19.2826098|-99.6556653
2215|Kuwait|29.31166|47.481766
2216|Virginia Beach, VA,|36.8529263|-75.97798499999999
2217|Southaven, MS|34.9918587|-90.0022958
2218|Eindhoven en Breda|51.4977873|5.4001553
2219|Rio de Janeiro, Brazil|-22.9068467|-43.1728965
2220|Boom, Belgium|51.08608|4.36633
2221|Itu,|37.389194|-121.9306859
2222|Alkmaar,|52.6323813|4.753375399999999
2223|Ansbach, Germany|49.3004246|10.5719357
2224|Clitheroe |53.871098|-2.393083
2225|Kenilworth, UK|52.349557|-1.58073
2226|Suffolk,|36.7282054|-76.5835621
2227|East Atlanta, GA|33.7366044|-84.3357992
2228|McDade, TX|30.2838227|-97.237769
2229|Borgerhout, Belgium|51.2225341|4.436814399999999
2230|International waters|46.9115589|-96.79508349999999
2231|Ulladulla, NSW|-35.3572426|150.4613249
2232|Paddock Wood,|51.1813239|0.38477
2233|NL Den Haag|52.0704978|4.3006999
2234|As, Belgium|51.0079961|5.5840068
2235|Morelia|19.7059504|-101.1949825
2236|Walton-on-Trent|52.7599019|-1.683351
2237|Estero, FL|26.438136|-81.8067523
2238|1551 Trap Road, Vienna, Virginia|38.9381714|-77.2652809
2239|Wetherby,|53.92705600000001|-1.384816
2240|Panama City Beach, FL|30.1765914|-85.8054879
2241|Cedar Park, TX|30.505198|-97.8202888
2242|Franklin, TN|35.9250637|-86.8688899
2243|Altamonte Springs, FL|28.6611089|-81.3656242
2244|North Charleston, SC|32.8771106|-80.0130514
2245|West End Park, New Orleans, La.|30.0242169|-90.1182078
2246|Willemstad, Netherlands Antilles|12.1224221|-68.8824233
2247|Bethel, NY|41.6837659|-74.8719284
2248|Fort Myers, FL|26.640628|-81.8723084
2249|Kiewit|38.95736|-94.777683
2250|Rotselaar,|50.9536709|4.7183791
2251|Paulínia, SP, Brazil|-22.7409932|-47.1742899
2252|Enterprise, AL|31.3151708|-85.85521609999999
2253|Perth|-31.9505269|115.8604572
2254|Warrnambool, VIC|-38.3686779|142.4982086
2255|Melbourne, AU|-37.8136276|144.9630576
2256|Hunter Valley, NSW|-32.1932173|151.700565
2257|Silver Springs, MD|38.99066570000001|-77.026088
2258|Coogee, NSW|-33.919|151.2555
2259|Stockton-on-Tees, UK|54.5704551|-1.3289821
2260|Woodinville, WA|47.7542651|-122.1634581
2261|Kinross, Scotland |56.206132|-3.4229
2262|Burnsville, MN|44.7677424|-93.27772259999999
2263|Coorabell, NSW, AUS|-28.6393085|153.4921029
2264|Minnepolis, MN|44.977753|-93.2650108
2265|Lithgow, NSW|-33.4827345|150.1570173
2266|Edinburgh, Scotland|55.953252|-3.188267
2267|Gdynia, Poland|54.5188898|18.5305409
2268|Treviso, IT|45.6668893|12.2430437
2269|Dubai, United Arab Emirates|25.2048493|55.2707828
2270|Kopenhagen, DK|55.6760968|12.5683372
2271|Sandown UK|50.6607588|-1.1488128
2272|Opwijk,|50.971588|4.186910999999999
2273|Coney Island, NY|40.5755438|-73.9707016
2274|Blue Island, IL|41.6572562|-87.68004859999999
2275|Wolfe Island, ON|44.1758657|-76.39845369999999
2276|Luzern, Switzerland|47.05016819999999|8.3093072
2277|Columbus, Ohio|39.9611755|-82.99879419999999
2278|Randall's Island, NY|40.7932271|-73.92128579999999
2279|Spartanburg, SC|34.9495672|-81.9320482
2280|Flemington, NJ|40.5123258|-74.85933179999999
2281|Martinez, CA|38.0193657|-122.1341321
2282|Littleton, CO|39.613321|-105.0166498
2283|Banbury|52.0629009|-1.339775
2284|Stockton on Tees|54.5704551|-1.3289821
2285|Dour, BE|50.4000126|3.7827918
2286|Acapulco,|16.8531086|-99.8236533
2287|Arcosanti, AZ|34.3425315|-112.1005547
2288|Stradbally, Ireland|53.01579830000001|-7.1494716
2289|Budapest|47.497912|19.040235
2290|Limoges,|45.83361900000001|1.261105
2291|Getafe, Spain|40.3082504|-3.7323934
2292|Bingley,|53.847389|-1.833781
2293|Patchogue, NY|40.7659783|-73.01934299999999
2294|Saint Louis MO|38.6270025|-90.19940419999999
2295|Ovar, Portugal|40.8596399|-8.6253313
2296|Londen, UK|51.5073509|-0.1277583
2297|Camden, UK|51.55170589999999|-0.1588255
2298|Wausau, WI|44.9591352|-89.6301221
2299|Decatur, IL|39.8403147|-88.9548001
2300|Ivins, UT|37.1685907|-113.6794057
2301|Clinton, IA|41.8444735|-90.1887379
2302|Gateshead |54.95268|-1.603411
2303|Mescalero, NM|33.15758539999999|-105.7741541
2304|Rotterdam, The Netherlands|51.9244201|4.4777326
2305|Dublin|53.3498053|-6.2603097
2306|Brussel, Belgium|50.8503463|4.3517211
2307|Haifa, Israel|32.7940463|34.989571
2308|Studio City, CA|34.1395597|-118.3870991
2309|norfolk va|36.8507689|-76.28587259999999
2310|Collingwood, VIC|-37.8019|144.98815
2311|Collingwood |44.50076869999999|-80.2169047
2312|Nonantola,|44.67887470000001|11.0411597
2313|Venlo, Netherlands|51.3703748|6.172403099999999
2314|Bentonville, ar|36.3728538|-94.2088172
